$GPGSV,3,1,22,02,66,298,33,05,30,178,34,06,50,015,33,10,50,112,30*77
$GPGSV,3,2,22,12,28,326,37,17,23,061,22,24,31,265,29,04,27,033,*7D
$GPGSV,3,3,22,26,00,000,,28,17,133,*70
$GLGSV,3,1,22,78,54,264,27,66,23,151,15,77,32,189,35,79,21,320,29*6C
$GLGSV,3,2,22,65,33,092,17,88,31,007,19,87,08,052,17,81,23,303,26*6D
$GLGSV,3,3,22,72,09,042,16*58
$GPGSV,3,1,22,02,66,298,33,05,30,178,34,06,50,015,33,10,50,112,30*77
$GPGSV,3,2,22,12,28,326,37,17,23,061,22,24,31,265,29,04,27,033,*7D
$GPGSV,3,3,22,26,00,000,,28,17,133,*70
$GLGSV,3,1,22,78,54,264,27,66,23,151,15,77,32,189,35,79,21,320,29*6C
$GLGSV,3,2,22,65,33,092,17,88,31,007,19,87,08,052,17,81,23,303,26*6D
$GLGSV,3,3,22,72,09,042,16*58
$GPGSA,A,3,02,05,06,10,12,17,24,,,,,,1.1,0.6,0.8*3F
$GPVTG,237.4,T,237.4,M,7.8,N,14.4,K,D*18
$GPRMC,233059,A,1939.317420,N,09922.872833,W,7.8,237.4,090714,0.0,E,D*00
$GPGGA,233059,1939.317420,N,09922.872833,W,2,07,0.6,2598.0,M,0.0,M,,*5E
$GPGSV,3,1,22,02,66,298,33,04,27,033,25,05,30,178,34,06,50,015,33*74
$GPGSV,3,2,22,10,50,112,30,12,28,326,23,17,23,061,23,24,31,265,28*7C
$GPGSV,3,3,22,28,17,133,28,26,00,000,*7A
$GLGSV,3,1,22,78,54,264,27,66,23,151,29,77,32,189,34,79,21,320,26*6D
$GLGSV,3,2,22,65,33,092,15,88,31,007,21,87,08,052,18,81,23,303,16*68
$GLGSV,3,3,22,72,09,042,16*58
$GPGSV,3,1,22,02,66,298,33,04,27,033,25,05,30,178,34,06,50,015,33*74
$GPGSV,3,2,22,10,50,112,30,12,28,326,23,17,23,061,23,24,31,265,28*7C
$GPGSV,3,3,22,28,17,133,28,26,00,000,*7A
$GLGSV,3,1,22,78,54,264,27,66,23,151,29,77,32,189,34,79,21,320,26*6D
$GLGSV,3,2,22,65,33,092,15,88,31,007,21,87,08,052,18,81,23,303,16*68
$GLGSV,3,3,22,72,09,042,16*58
$GPGSA,A,3,02,04,05,06,10,12,17,24,28,,,,1.0,0.6,0.8*30
$GPVTG,237.8,T,237.8,M,7.8,N,14.4,K,D*18
$GPRMC,233100,A,1939.316207,N,09922.874903,W,7.8,237.8,090714,0.0,E,D*07
$GPGGA,233100,1939.316207,N,09922.874903,W,2,09,0.6,2599.0,M,0.0,M,,*5A
$GPGSV,3,1,22,02,66,298,32,05,30,178,31,06,50,015,33,10,50,112,31*72
$GPGSV,3,2,22,12,28,326,23,24,31,265,25,28,17,133,30,04,27,033,*7A
$GPGSV,3,3,22,17,23,061,,26,00,000,*7D
$GLGSV,3,1,22,78,54,264,26,66,23,151,31,77,32,189,32,79,21,320,26*63
$GLGSV,3,2,22,65,33,092,18,88,31,007,21,87,08,052,18,81,23,303,20*60
$GLGSV,3,3,22,72,09,042,16*58
$GPGSV,3,1,22,02,66,298,32,05,30,178,31,06,50,015,33,10,50,112,31*72
$GPGSV,3,2,22,12,28,326,23,24,31,265,25,28,17,133,30,04,27,033,*7A
$GPGSV,3,3,22,17,23,061,,26,00,000,*7D
$GLGSV,3,1,22,78,54,264,26,66,23,151,31,77,32,189,32,79,21,320,26*63
$GLGSV,3,2,22,65,33,092,18,88,31,007,21,87,08,052,18,81,23,303,20*60
$GLGSV,3,3,22,72,09,042,16*58
$GPGSA,A,3,02,05,06,10,12,24,28,,,,,,1.0,0.6,0.8*32
$GPVTG,237.5,T,237.5,M,8.3,N,15.3,K,D*1A
$GPRMC,233101,A,1939.314914,N,09922.877215,W,8.3,237.5,090714,0.0,E,D*0B
$GPGGA,233101,1939.314914,N,09922.877215,W,2,07,0.6,2598.0,M,0.0,M,,*50
$GPGSV,3,1,22,02,66,298,34,04,27,033,21,05,30,178,32,06,50,015,33*71
$GPGSV,3,2,22,10,50,112,31,12,28,326,25,17,23,061,23,24,31,265,21*72
$GPGSV,3,3,22,28,17,133,27,26,00,000,*75
$GLGSV,3,1,22,78,54,264,28,66,23,151,33,77,32,189,33,79,21,320,26*6E
$GLGSV,3,2,22,65,33,092,23,88,31,007,18,87,08,052,18,81,23,303,19*68
$GLGSV,3,3,22,72,09,042,14*5A
$GPGSV,3,1,22,02,66,298,34,04,27,033,21,05,30,178,32,06,50,015,33*71
$GPGSV,3,2,22,10,50,112,31,12,28,326,25,17,23,061,23,24,31,265,21*72
$GPGSV,3,3,22,28,17,133,27,26,00,000,*75
$GLGSV,3,1,22,78,54,264,28,66,23,151,33,77,32,189,33,79,21,320,26*6E
$GLGSV,3,2,22,65,33,092,23,88,31,007,18,87,08,052,18,81,23,303,19*68
$GLGSV,3,3,22,72,09,042,14*5A
$GPGSA,A,3,02,04,05,06,10,12,17,24,28,,,,1.0,0.6,0.8*30
$GPVTG,237.7,T,237.7,M,8.3,N,15.3,K,D*1A
$GPRMC,233102,A,1939.313567,N,09922.879496,W,8.3,237.7,090714,0.0,E,D*06
$GPGGA,233102,1939.313567,N,09922.879496,W,2,09,0.6,2598.0,M,0.0,M,,*51
$GPGSV,3,1,22,02,66,298,28,05,30,178,32,06,50,015,34,10,50,112,31*7D
$GPGSV,3,2,22,17,23,061,24,24,31,265,25,28,17,133,29,04,27,033,*7B
$GPGSV,3,3,22,12,28,326,,26,00,000,*73
$GLGSV,3,1,22,78,54,264,28,66,23,151,23,77,32,189,35,79,21,320,17*6B
$GLGSV,3,2,22,65,33,092,19,88,31,007,20,87,08,052,16,81,23,303,19*64
$GLGSV,3,3,22,72,09,042,17*59
$GPGSV,3,1,22,02,66,298,28,05,30,178,32,06,50,015,34,10,50,112,31*7D
$GPGSV,3,2,22,17,23,061,24,24,31,265,25,28,17,133,29,04,27,033,*7B
$GPGSV,3,3,22,12,28,326,,26,00,000,*73
$GLGSV,3,1,22,78,54,264,28,66,23,151,23,77,32,189,35,79,21,320,17*6B
$GLGSV,3,2,22,65,33,092,19,88,31,007,20,87,08,052,16,81,23,303,19*64
$GLGSV,3,3,22,72,09,042,17*59
$GPGSA,A,3,02,05,06,10,17,24,28,,,,,,1.0,0.6,0.8*37
$GPVTG,237.6,T,237.6,M,8.3,N,15.3,K,D*1A
$GPRMC,233103,A,1939.312373,N,09922.881488,W,8.3,237.6,090714,0.0,E,D*0C
$GPGGA,233103,1939.312373,N,09922.881488,W,2,07,0.6,2599.0,M,0.0,M,,*55
$GPGSV,3,1,22,02,66,298,25,05,30,178,32,06,50,015,27,10,50,112,32*71
$GPGSV,3,2,22,24,31,265,29,28,17,133,27,04,27,033,,12,28,326,*71
$GPGSV,3,3,22,17,23,061,,26,00,000,*7D
$GLGSV,3,1,22,78,54,264,25,66,23,151,33,77,32,189,35,79,21,320,17*67
$GLGSV,3,2,22,65,33,092,21,88,31,007,20,87,08,052,16,81,23,303,19*6F
$GLGSV,3,3,22,72,09,042,17*59
$GPGSV,3,1,22,02,66,298,25,05,30,178,32,06,50,015,27,10,50,112,32*71
$GPGSV,3,2,22,24,31,265,29,28,17,133,27,04,27,033,,12,28,326,*71
$GPGSV,3,3,22,17,23,061,,26,00,000,*7D
$GLGSV,3,1,22,78,54,264,25,66,23,151,33,77,32,189,35,79,21,320,17*67
$GLGSV,3,2,22,65,33,092,21,88,31,007,20,87,08,052,16,81,23,303,19*6F
$GLGSV,3,3,22,72,09,042,17*59
$GPGSA,A,3,02,05,06,10,24,28,,,,,,,1.0,0.6,0.8*31
$GPVTG,237.2,T,237.2,M,8.3,N,15.3,K,D*1A
$GPRMC,233104,A,1939.311125,N,09922.883454,W,8.3,237.2,090714,0.0,E,D*0E
$GPGGA,233104,1939.311125,N,09922.883454,W,2,06,0.6,2599.0,M,0.0,M,,*52
$GPGSV,3,1,22,02,66,298,37,05,30,178,29,10,50,112,25,12,28,326,22*72
$GPGSV,3,2,22,24,31,265,33,28,17,133,29,04,27,033,,06,50,015,*7D
$GPGSV,3,3,22,17,23,061,,26,00,000,*7D
$GLGSV,3,1,22,78,54,264,26,66,23,151,28,77,32,189,35,79,21,320,17*6E
$GLGSV,3,2,22,65,33,092,23,88,31,007,17,87,08,052,16,81,23,303,15*65
$GLGSV,3,3,22,72,09,042,17*59
$GPGSV,3,1,22,02,66,298,37,05,30,178,29,10,50,112,25,12,28,326,22*72
$GPGSV,3,2,22,24,31,265,33,28,17,133,29,04,27,033,,06,50,015,*7D
$GPGSV,3,3,22,17,23,061,,26,00,000,*7D
$GLGSV,3,1,22,78,54,264,26,66,23,151,28,77,32,189,35,79,21,320,17*6E
$GLGSV,3,2,22,65,33,092,23,88,31,007,17,87,08,052,16,81,23,303,15*65
$GLGSV,3,3,22,72,09,042,17*59
$GPGSA,A,3,02,05,10,12,24,28,,,,,,,1.0,0.6,0.8*34
$GPVTG,236.1,T,236.1,M,8.3,N,15.3,K,D*1A
$GPRMC,233105,A,1939.309815,N,09922.885405,W,8.3,236.1,090714,0.0,E,D*0C
$GPGGA,233105,1939.309815,N,09922.885405,W,2,06,0.6,2600.0,M,0.0,M,,*51
$GPGSV,3,1,22,02,66,298,36,05,30,178,37,10,50,112,30,17,23,061,28*7C
$GPGSV,3,2,22,24,31,265,36,28,17,133,28,04,27,033,,06,50,015,*79
$GPGSV,3,3,22,12,28,326,,26,00,000,*73
$GLGSV,3,1,22,78,54,264,27,66,23,151,25,77,32,189,28,79,21,320,14*6D
$GLGSV,3,2,22,65,33,092,23,88,31,007,17,87,08,052,14,81,23,303,21*60
$GLGSV,3,3,22,72,09,042,17*59
$GPGSV,3,1,22,02,66,298,36,05,30,178,37,10,50,112,30,17,23,061,28*7C
$GPGSV,3,2,22,24,31,265,36,28,17,133,28,04,27,033,,06,50,015,*79
$GPGSV,3,3,22,12,28,326,,26,00,000,*73
$GLGSV,3,1,22,78,54,264,27,66,23,151,25,77,32,189,28,79,21,320,14*6D
$GLGSV,3,2,22,65,33,092,23,88,31,007,17,87,08,052,14,81,23,303,21*60
$GLGSV,3,3,22,72,09,042,17*59
$GPGSA,A,3,02,05,10,17,24,28,,,,,,,1.0,0.6,0.8*31
$GPVTG,235.7,T,235.7,M,8.3,N,15.3,K,D*1A
$GPRMC,233106,A,1939.308588,N,09922.887199,W,8.3,235.7,090714,0.0,E,D*00
$GPGGA,233106,1939.308588,N,09922.887199,W,2,06,0.6,2600.0,M,0.0,M,,*58
$GPGSV,3,1,22,02,66,298,34,05,30,178,37,06,50,015,29,10,50,112,29*70
$GPGSV,3,2,22,12,28,326,36,17,23,061,26,24,31,265,36,28,17,133,32*7B
$GPGSV,3,3,22,04,27,033,,26,00,000,*7C
$GLGSV,3,1,22,78,54,264,28,66,23,151,32,77,32,189,34,79,21,320,14*69
$GLGSV,3,2,22,65,33,092,24,88,31,007,18,87,08,052,24,81,23,303,20*6A
$GLGSV,3,3,22,72,09,042,14*5A
$GPGSV,3,1,22,02,66,298,34,05,30,178,37,06,50,015,29,10,50,112,29*70
$GPGSV,3,2,22,12,28,326,36,17,23,061,26,24,31,265,36,28,17,133,32*7B
$GPGSV,3,3,22,04,27,033,,26,00,000,*7C
$GLGSV,3,1,22,78,54,264,28,66,23,151,32,77,32,189,34,79,21,320,14*69
$GLGSV,3,2,22,65,33,092,24,88,31,007,18,87,08,052,24,81,23,303,20*6A
$GLGSV,3,3,22,72,09,042,14*5A
$GPGSA,A,3,02,05,06,10,12,17,24,28,,,,,1.0,0.6,0.8*34
$GPVTG,236.7,T,236.7,M,8.3,N,15.3,K,D*1A
$GPRMC,233107,A,1939.307393,N,09922.889150,W,8.3,236.7,090714,0.0,E,D*0A
$GPGGA,233107,1939.307393,N,09922.889150,W,2,08,0.6,2600.0,M,0.0,M,,*5F
$GPGSV,3,1,22,02,66,298,35,04,27,033,19,05,30,178,37,06,50,015,30*7D
$GPGSV,3,2,22,10,50,112,24,12,28,326,36,17,23,061,27,24,31,265,36*76
$GPGSV,3,3,22,28,17,133,30,26,00,000,*73
$GLGSV,3,1,22,78,54,264,21,66,23,151,31,77,32,189,32,79,21,320,25*67
$GLGSV,3,2,22,65,33,092,24,88,31,007,20,87,08,052,20,81,23,303,28*6D
$GLGSV,3,3,22,72,09,042,14*5A
$GPGSV,3,1,22,02,66,298,35,04,27,033,19,05,30,178,37,06,50,015,30*7D
$GPGSV,3,2,22,10,50,112,24,12,28,326,36,17,23,061,27,24,31,265,36*76
$GPGSV,3,3,22,28,17,133,30,26,00,000,*73
$GLGSV,3,1,22,78,54,264,21,66,23,151,31,77,32,189,32,79,21,320,25*67
$GLGSV,3,2,22,65,33,092,24,88,31,007,20,87,08,052,20,81,23,303,28*6D
$GLGSV,3,3,22,72,09,042,14*5A
$GPGSA,A,3,02,04,05,06,10,12,17,24,28,,,,1.0,0.6,0.8*30
$GPVTG,236.3,T,236.3,M,8.3,N,15.3,K,D*1A
$GPRMC,233108,A,1939.306224,N,09922.891022,W,8.3,236.3,090714,0.0,E,D*00
$GPGGA,233108,1939.306224,N,09922.891022,W,2,09,0.6,2601.0,M,0.0,M,,*51
$GPGSV,3,1,22,02,66,298,36,05,30,178,37,06,50,015,28,10,50,112,27*7D
$GPGSV,3,2,22,12,28,326,37,17,23,061,27,24,31,265,37,28,17,133,33*7B
$GPGSV,3,3,22,04,27,033,,26,00,000,*7C
$GLGSV,3,1,22,78,54,264,19,66,23,151,34,77,32,189,33,79,21,320,30*6C
$GLGSV,3,2,22,65,33,092,25,88,31,007,25,87,08,052,20,81,23,303,29*68
$GLGSV,3,3,22,72,09,042,14*5A
$GPGSV,3,1,22,02,66,298,36,05,30,178,37,06,50,015,28,10,50,112,27*7D
$GPGSV,3,2,22,12,28,326,37,17,23,061,27,24,31,265,37,28,17,133,33*7B
$GPGSV,3,3,22,04,27,033,,26,00,000,*7C
$GLGSV,3,1,22,78,54,264,19,66,23,151,34,77,32,189,33,79,21,320,30*6C
$GLGSV,3,2,22,65,33,092,25,88,31,007,25,87,08,052,20,81,23,303,29*68
$GLGSV,3,3,22,72,09,042,14*5A
$GPGSA,A,3,02,05,06,10,12,17,24,28,,,,,1.0,0.6,0.8*34
$GPVTG,235.1,T,235.1,M,8.3,N,15.3,K,D*1A
$GPRMC,233109,A,1939.304972,N,09922.892868,W,8.3,235.1,090714,0.0,E,D*0F
$GPGGA,233109,1939.304972,N,09922.892868,W,2,08,0.6,2601.0,M,0.0,M,,*5E
$GPGSV,3,1,22,02,66,298,36,04,27,033,23,05,30,178,39,06,50,015,27*7F
$GPGSV,3,2,22,10,50,112,28,12,28,326,33,17,23,061,27,24,31,265,39*70
$GPGSV,3,3,22,28,17,133,31,26,00,000,*72
$GLGSV,3,1,22,78,54,264,18,66,23,151,32,77,31,189,31,79,21,320,30*6A
$GLGSV,3,2,22,65,33,092,25,88,31,007,24,87,08,052,18,81,23,303,27*6C
$GLGSV,3,3,22,72,09,042,14*5A
$GPGSV,3,1,22,02,66,298,36,04,27,033,23,05,30,178,39,06,50,015,27*7F
$GPGSV,3,2,22,10,50,112,28,12,28,326,33,17,23,061,27,24,31,265,39*70
$GPGSV,3,3,22,28,17,133,31,26,00,000,*72
$GLGSV,3,1,22,78,54,264,18,66,23,151,32,77,31,189,31,79,21,320,30*6A
$GLGSV,3,2,22,65,33,092,25,88,31,007,24,87,08,052,18,81,23,303,27*6C
$GLGSV,3,3,22,72,09,042,14*5A
$GPGSA,A,3,02,04,05,06,10,12,17,24,28,,,,1.0,0.6,0.8*30
$GPVTG,232.9,T,232.9,M,8.3,N,15.3,K,D*1A
$GPRMC,233110,A,1939.303607,N,09922.894706,W,8.3,232.9,090714,0.0,E,D*03
$GPGGA,233110,1939.303607,N,09922.894706,W,2,09,0.6,2602.0,M,0.0,M,,*5F
$GPGSV,3,1,22,02,66,298,35,04,27,033,27,05,30,178,38,06,50,015,24*7A
$GPGSV,3,2,22,10,50,112,26,12,28,326,33,17,23,061,26,24,31,265,37*71
$GPGSV,3,3,22,26,00,000,,28,17,133,*70
$GLGSV,3,1,22,78,54,264,21,66,23,151,29,77,31,189,28,79,21,320,26*65
$GLGSV,3,2,22,65,33,092,22,88,31,007,26,87,08,052,21,81,23,303,26*62
$GLGSV,3,3,22,72,09,042,14*5A
$GPGSV,3,1,22,02,66,298,35,04,27,033,27,05,30,178,38,06,50,015,24*7A
$GPGSV,3,2,22,10,50,112,26,12,28,326,33,17,23,061,26,24,31,265,37*71
$GPGSV,3,3,22,26,00,000,,28,17,133,*70
$GLGSV,3,1,22,78,54,264,21,66,23,151,29,77,31,189,28,79,21,320,26*65
$GLGSV,3,2,22,65,33,092,22,88,31,007,26,87,08,052,21,81,23,303,26*62
$GLGSV,3,3,22,72,09,042,14*5A
$GPGSA,A,3,02,04,05,06,10,12,17,24,,,,,1.0,0.6,0.8*3A
$GPVTG,230.9,T,230.9,M,8.3,N,15.3,K,D*1A
$GPRMC,233111,A,1939.302254,N,09922.896356,W,8.3,230.9,090714,0.0,E,D*00
$GPGGA,233111,1939.302254,N,09922.896356,W,2,08,0.6,2602.0,M,0.0,M,,*5F
$GPGSV,3,1,22,02,66,298,35,04,27,033,26,05,30,178,36,06,50,015,26*77
$GPGSV,3,2,22,10,50,112,26,12,28,326,32,17,23,061,26,24,31,265,37*70
$GPGSV,3,3,22,26,00,000,,28,17,133,*70
$GLGSV,3,1,22,78,54,264,18,66,23,151,22,77,31,189,29,79,21,320,20*63
$GLGSV,3,2,22,65,33,092,24,88,31,007,23,87,08,052,23,81,23,303,22*67
$GLGSV,3,3,22,72,09,042,15*5B
$GPGSV,3,1,22,02,66,298,35,04,27,033,26,05,30,178,36,06,50,015,26*77
$GPGSV,3,2,22,10,50,112,26,12,28,326,32,17,23,061,26,24,31,265,37*70
$GPGSV,3,3,22,26,00,000,,28,17,133,*70
$GLGSV,3,1,22,78,54,264,18,66,23,151,22,77,31,189,29,79,21,320,20*63
$GLGSV,3,2,22,65,33,092,24,88,31,007,23,87,08,052,23,81,23,303,22*67
$GLGSV,3,3,22,72,09,042,15*5B
$GPGSA,A,3,02,04,05,06,10,12,17,24,,,,,1.0,0.6,0.8*3A
$GPVTG,230.3,T,230.3,M,7.8,N,14.4,K,D*18
$GPRMC,233112,A,1939.300848,N,09922.898038,W,7.8,230.3,090714,0.0,E,D*0D
$GPGGA,233112,1939.300848,N,09922.898038,W,2,08,0.6,2602.0,M,0.0,M,,*5C
$GPGSV,3,1,22,02,66,298,34,04,27,033,22,05,30,178,36,06,50,015,28*7C
$GPGSV,3,2,22,10,50,112,27,12,28,326,36,17,23,061,25,24,31,265,33*72
$GPGSV,3,3,22,28,17,133,23,26,00,000,*71
$GLGSV,3,1,22,78,54,264,22,66,23,151,24,77,31,189,30,79,21,320,26*62
$GLGSV,3,2,22,65,33,092,27,88,31,007,27,87,08,052,24,81,23,303,26*63
$GLGSV,3,3,22,72,09,042,19*57
$GPGSV,3,1,22,02,66,298,34,04,27,033,22,05,30,178,36,06,50,015,28*7C
$GPGSV,3,2,22,10,50,112,27,12,28,326,36,17,23,061,25,24,31,265,33*72
$GPGSV,3,3,22,28,17,133,23,26,00,000,*71
$GLGSV,3,1,22,78,54,264,22,66,23,151,24,77,31,189,30,79,21,320,26*62
$GLGSV,3,2,22,65,33,092,27,88,31,007,27,87,08,052,24,81,23,303,26*63
$GLGSV,3,3,22,72,09,042,19*57
$GPGSA,A,3,02,04,05,06,10,12,17,24,28,,,,1.0,0.6,0.8*30
$GPVTG,231.2,T,231.2,M,7.8,N,14.4,K,D*18
$GPRMC,233113,A,1939.299504,N,09922.899736,W,7.8,231.2,090714,0.0,E,D*00
$GPGGA,233113,1939.299504,N,09922.899736,W,2,09,0.6,2603.0,M,0.0,M,,*51
$GPGSV,3,1,22,02,66,298,31,04,27,033,24,05,30,178,38,06,50,015,30*78
$GPGSV,3,2,22,10,50,112,26,12,28,326,40,17,23,061,26,24,31,265,35*77
$GPGSV,3,3,22,26,00,000,,28,17,133,*70
$GLGSV,3,1,22,78,54,264,20,66,23,151,22,77,31,189,30,79,21,320,29*69
$GLGSV,3,2,22,65,33,092,24,88,31,007,26,87,08,052,21,81,23,303,27*65
$GLGSV,3,3,22,72,09,042,22*5F
$GPGSV,3,1,22,02,66,298,31,04,27,033,24,05,30,178,38,06,50,015,30*78
$GPGSV,3,2,22,10,50,112,26,12,28,326,40,17,23,061,26,24,31,265,35*77
$GPGSV,3,3,22,26,00,000,,28,17,133,*70
$GLGSV,3,1,22,78,54,264,20,66,23,151,22,77,31,189,30,79,21,320,29*69
$GLGSV,3,2,22,65,33,092,24,88,31,007,26,87,08,052,21,81,23,303,27*65
$GLGSV,3,3,22,72,09,042,22*5F
$GPGSA,A,3,02,04,05,06,10,12,17,24,,,,,1.0,0.6,0.8*3A
$GPVTG,234.6,T,234.6,M,7.8,N,14.4,K,D*18
$GPRMC,233114,A,1939.298387,N,09922.901458,W,7.8,234.6,090714,0.0,E,D*01
$GPGGA,233114,1939.298387,N,09922.901458,W,2,08,0.6,2603.0,M,0.0,M,,*50
$GPGSV,3,1,22,02,66,298,28,04,27,033,24,05,30,178,40,06,50,015,30*7F
$GPGSV,3,2,22,10,50,112,24,12,28,326,30,17,23,061,22,24,31,265,36*75
$GPGSV,3,3,22,28,17,133,36,26,00,000,*75
$GLGSV,3,1,22,78,54,264,25,66,23,151,31,77,31,189,33,79,21,320,32*67
$GLGSV,3,2,22,65,33,092,20,88,31,007,23,87,08,052,20,81,23,303,26*64
$GLGSV,3,3,22,72,09,042,23*5E
$GPGSV,3,1,22,02,66,298,28,04,27,033,24,05,30,178,40,06,50,015,30*7F
$GPGSV,3,2,22,10,50,112,24,12,28,326,30,17,23,061,22,24,31,265,36*75
$GPGSV,3,3,22,28,17,133,36,26,00,000,*75
$GLGSV,3,1,22,78,54,264,25,66,23,151,31,77,31,189,33,79,21,320,32*67
$GLGSV,3,2,22,65,33,092,20,88,31,007,23,87,08,052,20,81,23,303,26*64
$GLGSV,3,3,22,72,09,042,23*5E
$GPGSA,A,3,02,04,05,06,10,12,17,24,28,,,,1.0,0.6,0.8*30
$GPVTG,237.9,T,237.9,M,7.8,N,14.4,K,D*18
$GPRMC,233115,A,1939.297301,N,09922.903430,W,7.8,237.9,090714,0.0,E,D*01
$GPGGA,233115,1939.297301,N,09922.903430,W,2,09,0.6,2603.0,M,0.0,M,,*5D
$GPGSV,3,1,22,02,66,298,25,04,27,033,26,05,30,178,37,06,50,015,26*77
$GPGSV,3,2,22,10,50,112,28,12,28,326,30,17,23,061,24,24,31,265,36*7F
$GPGSV,3,3,22,28,17,133,32,26,00,000,*71
$GLGSV,3,1,22,78,54,264,28,66,23,151,30,77,31,189,32,79,21,320,19*63
$GLGSV,3,2,22,65,33,092,22,88,31,007,24,87,08,052,19,81,23,303,24*69
$GLGSV,3,3,22,72,09,042,26*5B
$GPGSV,3,1,22,02,66,298,25,04,27,033,26,05,30,178,37,06,50,015,26*77
$GPGSV,3,2,22,10,50,112,28,12,28,326,30,17,23,061,24,24,31,265,36*7F
$GPGSV,3,3,22,28,17,133,32,26,00,000,*71
$GLGSV,3,1,22,78,54,264,28,66,23,151,30,77,31,189,32,79,21,320,19*63
$GLGSV,3,2,22,65,33,092,22,88,31,007,24,87,08,052,19,81,23,303,24*69
$GLGSV,3,3,22,72,09,042,26*5B
$GPGSA,A,3,02,04,05,06,10,12,17,24,28,,,,1.0,0.6,0.8*30
$GPVTG,243.1,T,243.1,M,7.8,N,14.4,K,D*18
$GPRMC,233116,A,1939.296471,N,09922.905451,W,7.8,243.1,090714,0.0,E,D*09
$GPGGA,233116,1939.296471,N,09922.905451,W,2,09,0.6,2603.0,M,0.0,M,,*5E
$GPGSV,3,1,22,02,66,298,27,04,27,033,25,05,30,178,37,06,50,015,28*78
$GPGSV,3,2,22,10,50,112,29,12,28,326,27,24,31,265,37,28,17,133,29*79
$GPGSV,3,3,22,17,23,061,,26,00,000,*7D
$GLGSV,3,1,22,78,54,264,30,66,23,151,28,77,31,189,31,79,21,320,19*60
$GLGSV,3,2,22,65,33,092,29,88,31,007,20,87,08,052,21,81,23,303,24*6D
$GLGSV,3,3,22,72,09,042,21*5C
$GPGSV,3,1,22,02,66,298,27,04,27,033,25,05,30,178,37,06,50,015,28*78
$GPGSV,3,2,22,10,50,112,29,12,28,326,27,24,31,265,37,28,17,133,29*79
$GPGSV,3,3,22,17,23,061,,26,00,000,*7D
$GLGSV,3,1,22,78,54,264,30,66,23,151,28,77,31,189,31,79,21,320,19*60
$GLGSV,3,2,22,65,33,092,29,88,31,007,20,87,08,052,21,81,23,303,24*6D
$GLGSV,3,3,22,72,09,042,21*5C
$GPGSA,A,3,02,04,05,06,10,12,24,28,,,,,1.0,0.6,0.8*36
$GPVTG,247.3,T,247.3,M,7.8,N,14.4,K,D*18
$GPRMC,233117,A,1939.295745,N,09922.907582,W,7.8,247.3,090714,0.0,E,D*04
$GPGGA,233117,1939.295745,N,09922.907582,W,2,08,0.6,2603.0,M,0.0,M,,*54
$GPGSV,3,1,22,02,66,298,27,04,27,033,26,05,30,178,36,06,50,015,29*7B
$GPGSV,3,2,22,10,50,112,30,24,31,265,38,28,17,133,28,12,28,326,*7A
$GPGSV,3,3,22,17,23,061,,26,00,000,*7D
$GLGSV,3,1,22,78,54,264,30,66,23,151,29,77,31,189,31,79,21,320,16*6E
$GLGSV,3,2,22,65,33,092,30,88,31,007,20,87,08,052,24,81,23,303,21*65
$GLGSV,3,3,22,72,09,042,21*5C
$GPGSV,3,1,22,02,66,298,27,04,27,033,26,05,30,178,36,06,50,015,29*7B
$GPGSV,3,2,22,10,50,112,30,24,31,265,38,28,17,133,28,12,28,326,*7A
$GPGSV,3,3,22,17,23,061,,26,00,000,*7D
$GLGSV,3,1,22,78,54,264,30,66,23,151,29,77,31,189,31,79,21,320,16*6E
$GLGSV,3,2,22,65,33,092,30,88,31,007,20,87,08,052,24,81,23,303,21*65
$GLGSV,3,3,22,72,09,042,21*5C
$GPGSA,A,3,02,04,05,06,10,24,28,,,,,,1.0,0.6,0.8*35
$GPVTG,250.2,T,250.2,M,7.8,N,14.4,K,D*18
$GPRMC,233118,A,1939.295040,N,09922.909832,W,7.8,250.2,090714,0.0,E,D*06
$GPGGA,233118,1939.295040,N,09922.909832,W,2,07,0.6,2603.0,M,0.0,M,,*5E
$GPGSV,3,1,22,02,66,298,27,04,27,033,25,05,30,178,33,06,50,015,28*7C
$GPGSV,3,2,22,10,50,112,28,24,31,265,37,28,17,133,34,12,28,326,*71
$GPGSV,3,3,22,17,23,061,,26,00,000,*7D
$GLGSV,3,1,22,78,54,264,30,66,23,151,32,77,31,189,27,79,21,320,16*63
$GLGSV,3,2,22,65,33,092,30,88,31,007,18,87,08,052,21,81,23,303,17*6E
$GLGSV,3,3,22,72,09,042,21*5C
$GPGSV,3,1,22,02,66,298,27,04,27,033,25,05,30,178,33,06,50,015,28*7C
$GPGSV,3,2,22,10,50,112,28,24,31,265,37,28,17,133,34,12,28,326,*71
$GPGSV,3,3,22,17,23,061,,26,00,000,*7D
$GLGSV,3,1,22,78,54,264,30,66,23,151,32,77,31,189,27,79,21,320,16*63
$GLGSV,3,2,22,65,33,092,30,88,31,007,18,87,08,052,21,81,23,303,17*6E
$GLGSV,3,3,22,72,09,042,21*5C
$GPGSA,A,3,02,04,05,06,10,24,28,,,,,,1.0,0.6,0.8*35
$GPVTG,249.6,T,249.6,M,7.8,N,14.4,K,D*18
$GPRMC,233119,A,1939.294323,N,09922.911947,W,7.8,249.6,090714,0.0,E,D*06
$GPGGA,233119,1939.294323,N,09922.911947,W,2,07,0.6,2602.0,M,0.0,M,,*53
$GPGSV,3,1,22,02,66,298,30,04,27,033,30,05,30,178,33,10,50,112,24*73
$GPGSV,3,2,22,12,28,326,28,24,31,265,35,28,17,133,30,06,50,015,*76
$GPGSV,3,3,22,17,23,061,,26,00,000,*7D
$GLGSV,3,1,22,78,54,264,30,66,23,151,30,77,31,189,31,79,21,320,17*67
$GLGSV,3,2,22,65,33,092,29,88,31,007,20,87,08,052,21,81,23,303,25*6C
$GLGSV,3,3,22,72,09,042,15*5B
$GPGSV,3,1,22,02,66,298,30,04,27,033,30,05,30,178,33,10,50,112,24*73
$GPGSV,3,2,22,12,28,326,28,24,31,265,35,28,17,133,30,06,50,015,*76
$GPGSV,3,3,22,17,23,061,,26,00,000,*7D
$GLGSV,3,1,22,78,54,264,30,66,23,151,30,77,31,189,31,79,21,320,17*67
$GLGSV,3,2,22,65,33,092,29,88,31,007,20,87,08,052,21,81,23,303,25*6C
$GLGSV,3,3,22,72,09,042,15*5B
$GPGSA,A,3,02,04,05,10,12,24,28,,,,,,1.0,0.6,0.8*30
$GPVTG,247.4,T,247.4,M,7.8,N,14.4,K,D*18
$GPRMC,233120,A,1939.293450,N,09922.914138,W,7.8,247.4,090714,0.0,E,D*01
$GPGGA,233120,1939.293450,N,09922.914138,W,2,07,0.6,2604.0,M,0.0,M,,*5E
$GPGSV,3,1,22,02,66,298,33,04,27,033,29,05,30,178,32,10,50,112,26*7B
$GPGSV,3,2,22,12,28,326,26,24,31,265,32,28,17,133,32,06,50,015,*7D
$GPGSV,3,3,22,17,23,061,,26,00,000,*7D
$GLGSV,3,1,22,78,54,264,30,66,23,151,31,77,31,189,30,79,21,320,19*69
$GLGSV,3,2,22,65,33,092,28,88,31,007,21,87,08,052,21,81,23,303,21*68
$GLGSV,3,3,22,72,09,042,15*5B
$GPGSV,3,1,22,02,66,298,33,04,27,033,29,05,30,178,32,10,50,112,26*7B
$GPGSV,3,2,22,12,28,326,26,24,31,265,32,28,17,133,32,06,50,015,*7D
$GPGSV,3,3,22,17,23,061,,26,00,000,*7D
$GLGSV,3,1,22,78,54,264,30,66,23,151,31,77,31,189,30,79,21,320,19*69
$GLGSV,3,2,22,65,33,092,28,88,31,007,21,87,08,052,21,81,23,303,21*68
$GLGSV,3,3,22,72,09,042,15*5B
$GPGSA,A,3,02,04,05,10,12,24,28,,,,,,1.0,0.6,0.8*30
$GPVTG,245.3,T,245.3,M,8.3,N,15.3,K,D*1A
$GPRMC,233121,A,1939.292448,N,09922.916323,W,8.3,245.3,090714,0.0,E,D*03
$GPGGA,233121,1939.292448,N,09922.916323,W,2,07,0.6,2606.0,M,0.0,M,,*5F
$GPGSV,3,1,22,02,66,298,32,05,30,178,37,06,50,015,33,10,50,112,25*71
$GPGSV,3,2,22,12,28,326,28,24,31,265,24,28,17,133,25,04,27,033,*74
$GPGSV,3,3,22,17,23,061,,26,00,000,*7D
$GLGSV,3,1,22,78,54,264,29,66,23,151,27,77,31,189,33,79,21,320,20*6F
$GLGSV,3,2,22,65,33,092,28,88,31,007,23,87,08,052,15,81,23,303,18*67
$GLGSV,3,3,22,72,09,042,17*59
$GPGSV,3,1,22,02,66,298,32,05,30,178,37,06,50,015,33,10,50,112,25*71
$GPGSV,3,2,22,12,28,326,28,24,31,265,24,28,17,133,25,04,27,033,*74
$GPGSV,3,3,22,17,23,061,,26,00,000,*7D
$GLGSV,3,1,22,78,54,264,29,66,23,151,27,77,31,189,33,79,21,320,20*6F
$GLGSV,3,2,22,65,33,092,28,88,31,007,23,87,08,052,15,81,23,303,18*67
$GLGSV,3,3,22,72,09,042,17*59
$GPGSA,A,3,02,05,06,10,12,24,28,,,,,,1.0,0.6,0.8*32
$GPVTG,242.9,T,242.9,M,8.7,N,16.2,K,D*1C
$GPRMC,233122,A,1939.291227,N,09922.918640,W,8.7,242.9,090714,0.0,E,D*0B
$GPGGA,233122,1939.291227,N,09922.918640,W,2,07,0.6,2607.0,M,0.0,M,,*5F
$GPGSV,3,1,22,02,66,298,34,05,30,178,33,06,50,015,32,10,50,112,27*70
$GPGSV,3,2,22,12,28,326,26,24,31,265,26,28,17,133,28,04,27,033,*75
$GPGSV,3,3,22,17,23,061,,26,00,000,*7D
$GLGSV,3,1,22,78,54,264,28,66,23,151,19,77,31,189,33,79,21,320,20*63
$GLGSV,3,2,22,65,33,092,26,88,31,007,22,87,08,052,15,81,23,303,19*69
$GLGSV,3,3,22,72,09,042,18*56
$GPGSV,3,1,22,02,66,298,34,05,30,178,33,06,50,015,32,10,50,112,27*70
$GPGSV,3,2,22,12,28,326,26,24,31,265,26,28,17,133,28,04,27,033,*75
$GPGSV,3,3,22,17,23,061,,26,00,000,*7D
$GLGSV,3,1,22,78,54,264,28,66,23,151,19,77,31,189,33,79,21,320,20*63
$GLGSV,3,2,22,65,33,092,26,88,31,007,22,87,08,052,15,81,23,303,19*69
$GLGSV,3,3,22,72,09,042,18*56
$GPGSA,A,3,02,05,06,10,12,24,28,,,,,,1.0,0.6,0.8*32
$GPVTG,239.9,T,239.9,M,8.3,N,15.3,K,D*1A
$GPRMC,233123,A,1939.289906,N,09922.920844,W,8.3,239.9,090714,0.0,E,D*02
$GPGGA,233123,1939.289906,N,09922.920844,W,2,07,0.6,2607.0,M,0.0,M,,*5E
$GPGSV,3,1,22,02,66,298,33,04,27,033,24,05,30,178,33,06,50,015,28*78
$GPGSV,3,2,22,10,50,112,25,24,31,265,26,28,17,133,25,12,28,326,*7C
$GPGSV,3,3,22,17,23,061,,26,00,000,*7D
$GLGSV,3,1,22,78,54,264,27,66,23,151,25,77,31,189,33,79,21,320,18*68
$GLGSV,3,2,22,65,33,092,21,88,31,007,23,87,08,052,18,81,23,303,19*62
$GLGSV,3,3,22,72,09,042,18*56
$GPGSV,3,1,22,02,66,298,33,04,27,033,24,05,30,178,33,06,50,015,28*78
$GPGSV,3,2,22,10,50,112,25,24,31,265,26,28,17,133,25,12,28,326,*7C
$GPGSV,3,3,22,17,23,061,,26,00,000,*7D
$GLGSV,3,1,22,78,54,264,27,66,23,151,25,77,31,189,33,79,21,320,18*68
$GLGSV,3,2,22,65,33,092,21,88,31,007,23,87,08,052,18,81,23,303,19*62
$GLGSV,3,3,22,72,09,042,18*56
$GPGSA,A,3,02,04,05,06,10,24,28,,,,,,1.0,0.6,0.8*35
$GPVTG,240.0,T,240.0,M,7.8,N,14.4,K,D*18
$GPRMC,233124,A,1939.288703,N,09922.922885,W,7.8,240.0,090714,0.0,E,D*03
$GPGGA,233124,1939.288703,N,09922.922885,W,2,07,0.6,2605.0,M,0.0,M,,*5E
$GPGSV,3,1,22,02,66,298,33,05,30,178,38,06,50,015,25,10,50,112,23*7E
$GPGSV,3,2,22,24,31,265,32,28,17,133,24,04,27,033,,12,28,326,*78
$GPGSV,3,3,22,17,23,061,,26,00,000,*7D
$GLGSV,3,1,22,78,54,264,27,66,23,151,23,77,31,189,34,79,21,320,16*67
$GLGSV,3,2,22,65,33,092,25,88,31,007,19,87,08,052,16,81,23,303,17*6F
$GLGSV,3,3,22,72,09,042,19*57
$GPGSV,3,1,22,02,66,298,33,05,30,178,38,06,50,015,25,10,50,112,23*7E
$GPGSV,3,2,22,24,31,265,32,28,17,133,24,04,27,033,,12,28,326,*78
$GPGSV,3,3,22,17,23,061,,26,00,000,*7D
$GLGSV,3,1,22,78,54,264,27,66,23,151,23,77,31,189,34,79,21,320,16*67
$GLGSV,3,2,22,65,33,092,25,88,31,007,19,87,08,052,16,81,23,303,17*6F
$GLGSV,3,3,22,72,09,042,19*57
$GPGSA,A,3,02,05,06,10,24,28,,,,,,,1.0,0.6,0.8*31
$GPVTG,241.4,T,241.4,M,7.8,N,14.4,K,D*18
$GPRMC,233125,A,1939.287616,N,09922.924873,W,7.8,241.4,090714,0.0,E,D*02
$GPGGA,233125,1939.287616,N,09922.924873,W,2,06,0.6,2605.0,M,0.0,M,,*5B
$GPGSV,3,1,22,02,66,298,34,05,30,178,32,06,50,015,25,10,50,112,25*75
$GPGSV,3,2,22,17,23,061,25,24,31,265,37,28,17,133,28,04,27,033,*78
$GPGSV,3,3,22,12,28,326,,26,00,000,*73
$GLGSV,3,1,22,78,54,264,26,66,23,151,25,77,31,189,34,79,21,320,16*60
$GLGSV,3,2,22,65,33,092,25,88,31,007,19,87,08,052,18,81,23,303,19*6F
$GLGSV,3,3,22,72,09,042,19*57
$GPGSV,3,1,22,02,66,298,34,05,30,178,32,06,50,015,25,10,50,112,25*75
$GPGSV,3,2,22,17,23,061,25,24,31,265,37,28,17,133,28,04,27,033,*78
$GPGSV,3,3,22,12,28,326,,26,00,000,*73
$GLGSV,3,1,22,78,54,264,26,66,23,151,25,77,31,189,34,79,21,320,16*60
$GLGSV,3,2,22,65,33,092,25,88,31,007,19,87,08,052,18,81,23,303,19*6F
$GLGSV,3,3,22,72,09,042,19*57
$GPGSA,A,3,02,05,06,10,17,24,28,,,,,,1.0,0.6,0.8*37
$GPVTG,245.7,T,245.7,M,7.8,N,14.4,K,D*18
$GPRMC,233126,A,1939.286705,N,09922.927063,W,7.8,245.7,090714,0.0,E,D*0E
$GPGGA,233126,1939.286705,N,09922.927063,W,2,07,0.6,2605.0,M,0.0,M,,*51
$GPGSV,3,1,22,02,66,298,32,05,30,178,37,06,50,015,25,10,50,112,26*75
$GPGSV,3,2,22,12,28,326,41,17,23,061,25,24,31,265,37,28,17,133,28*72
$GPGSV,3,3,22,04,27,033,,26,00,000,*7C
$GLGSV,3,1,22,78,54,264,28,66,23,151,25,77,31,189,33,79,21,320,16*69
$GLGSV,3,2,22,65,33,092,27,88,31,007,15,87,08,052,22,81,23,303,25*67
$GLGSV,3,3,22,72,09,042,16*58
$GPGSV,3,1,22,02,66,298,32,05,30,178,37,06,50,015,25,10,50,112,26*75
$GPGSV,3,2,22,12,28,326,41,17,23,061,25,24,31,265,37,28,17,133,28*72
$GPGSV,3,3,22,04,27,033,,26,00,000,*7C
$GLGSV,3,1,22,78,54,264,28,66,23,151,25,77,31,189,33,79,21,320,16*69
$GLGSV,3,2,22,65,33,092,27,88,31,007,15,87,08,052,22,81,23,303,25*67
$GLGSV,3,3,22,72,09,042,16*58
$GPGSA,A,3,02,05,06,10,12,17,24,28,,,,,1.0,0.6,0.8*34
$GPVTG,245.1,T,245.1,M,7.8,N,14.4,K,D*18
$GPRMC,233127,A,1939.285828,N,09922.929061,W,7.8,245.1,090714,0.0,E,D*06
$GPGGA,233127,1939.285828,N,09922.929061,W,2,08,0.6,2606.0,M,0.0,M,,*53
$GPGSV,3,1,22,02,66,298,31,05,30,178,38,06,50,015,25,10,50,112,28*77
$GPGSV,3,2,22,12,28,326,39,24,31,265,37,04,27,033,,17,23,061,*7C
$GPGSV,3,3,22,26,00,000,,28,17,133,*70
$GLGSV,3,1,22,78,54,264,30,66,23,151,22,77,31,189,33,79,21,320,26*64
$GLGSV,3,2,22,65,33,092,26,88,31,007,17,87,08,052,18,81,23,303,32*6B
$GLGSV,3,3,22,72,09,042,16*58
$GPGSV,3,1,22,02,66,298,31,05,30,178,38,06,50,015,25,10,50,112,28*77
$GPGSV,3,2,22,12,28,326,39,24,31,265,37,04,27,033,,17,23,061,*7C
$GPGSV,3,3,22,26,00,000,,28,17,133,*70
$GLGSV,3,1,22,78,54,264,30,66,23,151,22,77,31,189,33,79,21,320,26*64
$GLGSV,3,2,22,65,33,092,26,88,31,007,17,87,08,052,18,81,23,303,32*6B
$GLGSV,3,3,22,72,09,042,16*58
$GPGSA,A,3,02,05,06,10,12,24,,,,,,,1.0,0.6,0.8*38
$GPVTG,244.6,T,244.6,M,7.8,N,14.4,K,D*18
$GPRMC,233128,A,1939.284866,N,09922.931234,W,7.8,244.6,090714,0.0,E,D*0F
$GPGGA,233128,1939.284866,N,09922.931234,W,2,06,0.6,2607.0,M,0.0,M,,*53
$GPGSV,3,1,22,02,66,298,29,05,30,178,38,06,50,015,26,10,50,112,24*71
$GPGSV,3,2,22,12,28,326,25,24,31,265,37,28,17,133,28,04,27,033,*76
$GPGSV,3,3,22,17,23,061,,26,00,000,*7D
$GLGSV,3,1,22,78,54,264,28,66,23,151,24,77,31,189,33,79,21,320,23*6E
$GLGSV,3,2,22,65,33,092,24,88,31,007,23,87,08,052,18,81,23,303,25*68
$GLGSV,3,3,22,72,09,042,16*58
$GPGSV,3,1,22,02,66,298,29,05,30,178,38,06,50,015,26,10,50,112,24*71
$GPGSV,3,2,22,12,28,326,25,24,31,265,37,28,17,133,28,04,27,033,*76
$GPGSV,3,3,22,17,23,061,,26,00,000,*7D
$GLGSV,3,1,22,78,54,264,28,66,23,151,24,77,31,189,33,79,21,320,23*6E
$GLGSV,3,2,22,65,33,092,24,88,31,007,23,87,08,052,18,81,23,303,25*68
$GLGSV,3,3,22,72,09,042,16*58
$GPGSA,A,3,02,05,06,10,12,24,28,,,,,,1.0,0.6,0.8*32
$GPVTG,243.6,T,243.6,M,8.3,N,15.3,K,D*1A
$GPRMC,233129,A,1939.283812,N,09922.933494,W,8.3,243.6,090714,0.0,E,D*07
$GPGGA,233129,1939.283812,N,09922.933494,W,2,07,0.6,2607.0,M,0.0,M,,*59
$GPGSV,3,1,22,02,66,298,34,04,27,033,24,05,30,178,37,06,50,015,29*7A
$GPGSV,3,2,22,10,50,112,24,12,28,326,36,24,31,265,36,28,17,133,29*75
$GPGSV,3,3,22,17,23,061,,26,00,000,*7D
$GLGSV,3,1,22,78,54,264,29,66,23,151,30,77,31,189,32,79,21,320,18*63
$GLGSV,3,2,22,65,33,092,26,88,31,007,22,87,08,052,18,81,23,303,24*6A
$GLGSV,3,3,22,72,09,042,14*5A
$GPGSV,3,1,22,02,66,298,34,04,27,033,24,05,30,178,37,06,50,015,29*7A
$GPGSV,3,2,22,10,50,112,24,12,28,326,36,24,31,265,36,28,17,133,29*75
$GPGSV,3,3,22,17,23,061,,26,00,000,*7D
$GLGSV,3,1,22,78,54,264,29,66,23,151,30,77,31,189,32,79,21,320,18*63
$GLGSV,3,2,22,65,33,092,26,88,31,007,22,87,08,052,18,81,23,303,24*6A
$GLGSV,3,3,22,72,09,042,14*5A
$GPGSA,A,3,02,04,05,06,10,12,24,28,,,,,1.0,0.6,0.8*36
$GPVTG,243.3,T,243.3,M,8.3,N,15.3,K,D*1A
$GPRMC,233130,A,1939.282801,N,09922.935697,W,8.3,243.3,090714,0.0,E,D*0E
$GPGGA,233130,1939.282801,N,09922.935697,W,2,08,0.6,2608.0,M,0.0,M,,*55
$GPGSV,3,1,22,02,66,298,35,05,30,178,38,06,50,015,32,10,50,112,27*7A
$GPGSV,3,2,22,12,28,326,37,24,31,265,36,28,17,133,35,04,27,033,*78
$GPGSV,3,3,22,17,23,061,,26,00,000,*7D
$GLGSV,3,1,22,78,54,264,25,66,23,151,32,77,31,189,32,79,21,320,25*63
$GLGSV,3,2,22,65,33,092,27,88,31,007,25,87,08,052,18,81,23,303,29*61
$GLGSV,3,3,22,72,09,042,14*5A
$GPGSV,3,1,22,02,66,298,35,05,30,178,38,06,50,015,32,10,50,112,27*7A
$GPGSV,3,2,22,12,28,326,37,24,31,265,36,28,17,133,35,04,27,033,*78
$GPGSV,3,3,22,17,23,061,,26,00,000,*7D
$GLGSV,3,1,22,78,54,264,25,66,23,151,32,77,31,189,32,79,21,320,25*63
$GLGSV,3,2,22,65,33,092,27,88,31,007,25,87,08,052,18,81,23,303,29*61
$GLGSV,3,3,22,72,09,042,14*5A
$GPGSA,A,3,02,05,06,10,12,24,28,,,,,,1.0,0.6,0.8*32
$GPVTG,241.9,T,241.9,M,9.2,N,17.1,K,D*1A
$GPRMC,233131,A,1939.281486,N,09922.938317,W,9.2,241.9,090714,0.0,E,D*07
$GPGGA,233131,1939.281486,N,09922.938317,W,2,07,0.6,2608.0,M,0.0,M,,*5B
$GPGSV,3,1,22,02,66,298,34,05,30,178,37,06,50,015,32,10,50,112,23*70
$GPGSV,3,2,22,12,28,326,36,24,31,265,36,28,17,133,32,04,27,033,*7E
$GPGSV,3,3,22,17,23,061,,26,00,000,*7D
$GLGSV,3,1,22,78,54,264,23,66,23,151,32,77,31,189,32,79,21,320,29*69
$GLGSV,3,2,22,65,33,092,25,88,31,007,27,87,08,052,18,81,23,303,30*69
$GLGSV,3,3,22,72,09,042,19*57
$GPGSV,3,1,22,02,66,298,34,05,30,178,37,06,50,015,32,10,50,112,23*70
$GPGSV,3,2,22,12,28,326,36,24,31,265,36,28,17,133,32,04,27,033,*7E
$GPGSV,3,3,22,17,23,061,,26,00,000,*7D
$GLGSV,3,1,22,78,54,264,23,66,23,151,32,77,31,189,32,79,21,320,29*69
$GLGSV,3,2,22,65,33,092,25,88,31,007,27,87,08,052,18,81,23,303,30*69
$GLGSV,3,3,22,72,09,042,19*57
$GPGSA,A,3,02,05,06,10,12,24,28,,,,,,1.0,0.6,0.8*32
$GPVTG,240.4,T,240.4,M,9.2,N,17.1,K,D*1A
$GPRMC,233132,A,1939.280117,N,09922.940842,W,9.2,240.4,090714,0.0,E,D*00
$GPGGA,233132,1939.280117,N,09922.940842,W,2,07,0.6,2609.0,M,0.0,M,,*51
$GPGSV,3,1,22,02,66,299,35,05,30,178,39,06,50,015,33,10,50,112,28*74
$GPGSV,3,2,22,12,28,326,38,24,31,265,33,28,17,133,31,04,27,033,*76
$GPGSV,3,3,22,17,23,061,,26,00,000,*7D
$GLGSV,3,1,22,78,54,264,24,66,23,151,33,77,31,189,33,79,21,320,29*6E
$GLGSV,3,2,22,65,33,092,20,88,31,007,26,87,08,052,13,81,23,303,26*61
$GLGSV,3,3,22,72,09,042,17*59
$GPGSV,3,1,22,02,66,299,35,05,30,178,39,06,50,015,33,10,50,112,28*74
$GPGSV,3,2,22,12,28,326,38,24,31,265,33,28,17,133,31,04,27,033,*76
$GPGSV,3,3,22,17,23,061,,26,00,000,*7D
$GLGSV,3,1,22,78,54,264,24,66,23,151,33,77,31,189,33,79,21,320,29*6E
$GLGSV,3,2,22,65,33,092,20,88,31,007,26,87,08,052,13,81,23,303,26*61
$GLGSV,3,3,22,72,09,042,17*59
$GPGSA,A,3,02,05,06,10,12,24,28,,,,,,1.1,0.7,0.8*32
$GPVTG,239.3,T,239.3,M,9.2,N,17.1,K,D*1A
$GPRMC,233133,A,1939.278690,N,09922.943377,W,9.2,239.3,090714,0.0,E,D*09
$GPGGA,233133,1939.278690,N,09922.943377,W,2,07,0.7,2609.0,M,0.0,M,,*50
$GPGSV,3,1,22,02,66,299,35,05,30,178,37,06,50,015,34,10,50,112,25*70
$GPGSV,3,2,22,12,28,326,38,24,31,265,35,28,17,133,25,04,27,033,*75
$GPGSV,3,3,22,17,23,061,,26,00,000,*7D
$GLGSV,3,1,22,78,54,264,22,66,23,151,29,77,31,189,34,79,21,320,30*6C
$GLGSV,3,2,22,65,33,092,22,88,31,007,28,87,08,052,18,81,23,303,25*65
$GLGSV,3,3,22,72,09,042,20*5D
$GPGSV,3,1,22,02,66,299,35,05,30,178,37,06,50,015,34,10,50,112,25*70
$GPGSV,3,2,22,12,28,326,38,24,31,265,35,28,17,133,25,04,27,033,*75
$GPGSV,3,3,22,17,23,061,,26,00,000,*7D
$GLGSV,3,1,22,78,54,264,22,66,23,151,29,77,31,189,34,79,21,320,30*6C
$GLGSV,3,2,22,65,33,092,22,88,31,007,28,87,08,052,18,81,23,303,25*65
$GLGSV,3,3,22,72,09,042,20*5D
$GPGSA,A,3,02,05,06,10,12,24,28,,,,,,1.1,0.7,0.8*32
$GPVTG,239.4,T,239.4,M,9.2,N,17.1,K,D*1A
$GPRMC,233134,A,1939.277288,N,09922.945948,W,9.2,239.4,090714,0.0,E,D*0B
$GPGGA,233134,1939.277288,N,09922.945948,W,2,07,0.7,2608.0,M,0.0,M,,*54
$GPGSV,3,1,22,02,66,299,34,04,27,033,24,05,30,178,36,06,50,015,32*70
$GPGSV,3,2,22,10,50,112,25,24,31,265,30,28,17,133,33,12,28,326,*7C
$GPGSV,3,3,22,17,23,061,,26,00,000,*7D
$GLGSV,3,1,22,78,54,264,25,66,23,151,29,77,31,189,33,79,21,320,28*65
$GLGSV,3,2,22,65,33,092,21,88,31,007,26,87,08,052,18,81,23,303,20*6D
$GLGSV,3,3,22,72,09,042,20*5D
$GPGSV,3,1,22,02,66,299,34,04,27,033,24,05,30,178,36,06,50,015,32*70
$GPGSV,3,2,22,10,50,112,25,24,31,265,30,28,17,133,33,12,28,326,*7C
$GPGSV,3,3,22,17,23,061,,26,00,000,*7D
$GLGSV,3,1,22,78,54,264,25,66,23,151,29,77,31,189,33,79,21,320,28*65
$GLGSV,3,2,22,65,33,092,21,88,31,007,26,87,08,052,18,81,23,303,20*6D
$GLGSV,3,3,22,72,09,042,20*5D
$GPGSA,A,3,02,04,05,06,10,24,28,,,,,,1.0,0.6,0.8*35
$GPVTG,240.4,T,240.4,M,9.2,N,17.1,K,D*1A
$GPRMC,233135,A,1939.276067,N,09922.948337,W,9.2,240.4,090714,0.0,E,D*09
$GPGGA,233135,1939.276067,N,09922.948337,W,2,07,0.6,2608.0,M,0.0,M,,*59
$GPGSV,3,1,22,02,66,299,33,05,30,178,34,06,50,015,30,10,50,112,25*71
$GPGSV,3,2,22,24,31,265,37,28,17,133,34,04,27,033,,12,28,326,*7C
$GPGSV,3,3,22,17,23,061,,26,00,000,*7D
$GLGSV,3,1,22,78,54,264,24,66,23,151,32,77,31,189,32,79,21,320,28*6F
$GLGSV,3,2,22,65,33,092,28,88,31,007,23,87,08,052,21,81,23,303,20*6B
$GLGSV,3,3,22,72,09,042,26*5B
$GPGSV,3,1,22,02,66,299,33,05,30,178,34,06,50,015,30,10,50,112,25*71
$GPGSV,3,2,22,24,31,265,37,28,17,133,34,04,27,033,,12,28,326,*7C
$GPGSV,3,3,22,17,23,061,,26,00,000,*7D
$GLGSV,3,1,22,78,54,264,24,66,23,151,32,77,31,189,32,79,21,320,28*6F
$GLGSV,3,2,22,65,33,092,28,88,31,007,23,87,08,052,21,81,23,303,20*6B
$GLGSV,3,3,22,72,09,042,26*5B
$GPGSA,A,3,02,05,06,10,24,28,,,,,,,1.0,0.6,0.8*31
$GPVTG,242.1,T,242.1,M,9.2,N,17.1,K,D*1A
$GPRMC,233136,A,1939.274931,N,09922.950719,W,9.2,242.1,090714,0.0,E,D*04
$GPGGA,233136,1939.274931,N,09922.950719,W,2,06,0.6,2608.0,M,0.0,M,,*52
$GPGSV,3,1,22,02,66,299,34,05,30,178,36,10,50,112,26,24,31,265,37*72
$GPGSV,3,2,22,28,17,133,33,04,27,033,,06,50,015,,12,28,326,*7D
$GPGSV,3,3,22,17,23,061,,26,00,000,*7D
$GLGSV,3,1,22,78,54,264,26,66,23,151,33,77,31,189,33,79,21,320,28*6D
$GLGSV,3,2,22,65,33,092,30,88,31,007,19,87,08,052,22,81,23,303,16*6D
$GLGSV,3,3,22,72,09,042,27*5A
$GPGSV,3,1,22,02,66,299,34,05,30,178,36,10,50,112,26,24,31,265,37*72
$GPGSV,3,2,22,28,17,133,33,04,27,033,,06,50,015,,12,28,326,*7D
$GPGSV,3,3,22,17,23,061,,26,00,000,*7D
$GLGSV,3,1,22,78,54,264,26,66,23,151,33,77,31,189,33,79,21,320,28*6D
$GLGSV,3,2,22,65,33,092,30,88,31,007,19,87,08,052,22,81,23,303,16*6D
$GLGSV,3,3,22,72,09,042,27*5A
$GPGSA,A,3,02,05,10,24,28,,,,,,,,1.0,0.6,0.8*37
$GPVTG,243.6,T,243.6,M,9.2,N,17.1,K,D*1A
$GPRMC,233137,A,1939.273857,N,09922.953136,W,9.2,243.6,090714,0.0,E,D*0D
$GPGGA,233137,1939.273857,N,09922.953136,W,2,05,0.6,2608.0,M,0.0,M,,*5E
$GPGSV,3,1,22,02,66,299,33,05,30,178,38,06,50,015,23,10,50,112,26*7C
$GPGSV,3,2,22,24,31,265,36,28,17,133,28,04,27,033,,12,28,326,*70
$GPGSV,3,3,22,17,23,061,,26,00,000,*7D
$GLGSV,3,1,22,78,54,264,26,66,23,151,23,77,31,189,31,79,21,320,13*66
$GLGSV,3,2,22,65,33,092,29,88,31,007,19,87,08,052,17,81,23,303,18*6D
$GLGSV,3,3,22,72,09,042,17*59
$GPGSV,3,1,22,02,66,299,33,05,30,178,38,06,50,015,23,10,50,112,26*7C
$GPGSV,3,2,22,24,31,265,36,28,17,133,28,04,27,033,,12,28,326,*70
$GPGSV,3,3,22,17,23,061,,26,00,000,*7D
$GLGSV,3,1,22,78,54,264,26,66,23,151,23,77,31,189,31,79,21,320,13*66
$GLGSV,3,2,22,65,33,092,29,88,31,007,19,87,08,052,17,81,23,303,18*6D
$GLGSV,3,3,22,72,09,042,17*59
$GPGSA,A,3,02,05,06,10,24,28,,,,,,,1.0,0.6,0.8*31
$GPVTG,244.3,T,244.3,M,9.2,N,17.1,K,D*1A
$GPRMC,233138,A,1939.272839,N,09922.955470,W,9.2,244.3,090714,0.0,E,D*08
$GPGGA,233138,1939.272839,N,09922.955470,W,2,06,0.6,2608.0,M,0.0,M,,*5A
$GPGSV,3,1,22,02,66,299,34,05,30,178,36,06,50,015,25,10,50,112,26*73
$GPGSV,3,2,22,24,31,265,37,28,17,133,27,04,27,033,,12,28,326,*7E
$GPGSV,3,3,22,17,23,061,,26,00,000,*7D
$GLGSV,3,1,22,78,54,264,27,66,23,151,30,77,31,189,33,79,21,320,13*67
$GLGSV,3,2,22,65,33,092,29,88,31,007,23,87,08,052,18,81,23,303,17*64
$GLGSV,3,3,22,72,09,042,17*59
$GPGSV,3,1,22,02,66,299,34,05,30,178,36,06,50,015,25,10,50,112,26*73
$GPGSV,3,2,22,24,31,265,37,28,17,133,27,04,27,033,,12,28,326,*7E
$GPGSV,3,3,22,17,23,061,,26,00,000,*7D
$GLGSV,3,1,22,78,54,264,27,66,23,151,30,77,31,189,33,79,21,320,13*67
$GLGSV,3,2,22,65,33,092,29,88,31,007,23,87,08,052,18,81,23,303,17*64
$GLGSV,3,3,22,72,09,042,17*59
$GPGSA,A,3,02,05,06,10,24,28,,,,,,,1.0,0.6,0.8*31
$GPVTG,244.6,T,244.6,M,9.2,N,17.1,K,D*1A
$GPRMC,233139,A,1939.271723,N,09922.958003,W,9.2,244.6,090714,0.0,E,D*06
$GPGGA,233139,1939.271723,N,09922.958003,W,2,06,0.6,2607.0,M,0.0,M,,*5E
$GPGSV,3,1,22,02,66,299,32,04,27,033,30,05,30,178,36,06,50,015,24*74
$GPGSV,3,2,22,24,31,265,36,28,17,133,30,10,50,112,,12,28,326,*7E
$GPGSV,3,3,22,17,23,061,,26,00,000,*7D
$GLGSV,3,1,22,78,54,264,26,66,23,151,30,77,31,189,32,79,21,320,17*63
$GLGSV,3,2,22,65,33,092,25,88,31,007,18,87,08,052,20,81,23,303,17*6B
$GLGSV,3,3,22,72,09,042,14*5A
$GPGSV,3,1,22,02,66,299,32,04,27,033,30,05,30,178,36,06,50,015,24*74
$GPGSV,3,2,22,24,31,265,36,28,17,133,30,10,50,112,,12,28,326,*7E
$GPGSV,3,3,22,17,23,061,,26,00,000,*7D
$GLGSV,3,1,22,78,54,264,26,66,23,151,30,77,31,189,32,79,21,320,17*63
$GLGSV,3,2,22,65,33,092,25,88,31,007,18,87,08,052,20,81,23,303,17*6B
$GLGSV,3,3,22,72,09,042,14*5A
$GPGSA,A,3,02,04,05,06,24,28,,,,,,,1.0,0.6,0.8*34
$GPVTG,244.7,T,244.7,M,9.2,N,17.1,K,D*1A
$GPRMC,233140,A,1939.270593,N,09922.960500,W,9.2,244.7,090714,0.0,E,D*0C
$GPGGA,233140,1939.270593,N,09922.960500,W,2,06,0.6,2608.0,M,0.0,M,,*5A
$GPGSV,3,1,22,02,66,299,32,04,27,033,33,05,30,178,37,06,50,015,28*7A
$GPGSV,3,2,22,10,50,112,26,12,28,326,28,24,31,265,35,28,17,133,27*75
$GPGSV,3,3,22,17,23,061,,26,00,000,*7D
$GLGSV,3,1,22,78,54,264,28,66,23,151,24,77,31,189,31,79,21,320,17*6B
$GLGSV,3,2,22,65,33,092,30,88,31,007,20,87,08,052,19,81,23,303,19*60
$GLGSV,3,3,22,72,09,042,16*58
$GPGSV,3,1,22,02,66,299,32,04,27,033,33,05,30,178,37,06,50,015,28*7A
$GPGSV,3,2,22,10,50,112,26,12,28,326,28,24,31,265,35,28,17,133,27*75
$GPGSV,3,3,22,17,23,061,,26,00,000,*7D
$GLGSV,3,1,22,78,54,264,28,66,23,151,24,77,31,189,31,79,21,320,17*6B
$GLGSV,3,2,22,65,33,092,30,88,31,007,20,87,08,052,19,81,23,303,19*60
$GLGSV,3,3,22,72,09,042,16*58
$GPGSA,A,3,02,04,05,06,10,12,24,28,,,,,1.1,0.7,0.8*36
$GPVTG,245.2,T,245.2,M,9.2,N,17.1,K,D*1A
$GPRMC,233141,A,1939.269426,N,09922.963101,W,9.2,245.2,090714,0.0,E,D*08
$GPGGA,233141,1939.269426,N,09922.963101,W,2,08,0.7,2608.0,M,0.0,M,,*55
$GPGSV,3,1,22,02,66,299,32,04,27,033,31,05,30,178,35,06,50,015,29*7B
$GPGSV,3,2,22,10,50,112,26,12,28,326,27,24,31,265,33,28,17,133,31*7B
$GPGSV,3,3,22,17,23,061,,26,00,000,*7D
$GLGSV,3,1,22,78,54,264,25,66,23,151,30,77,31,189,30,79,21,320,17*62
$GLGSV,3,2,22,65,33,092,30,88,31,007,19,87,08,052,19,81,23,303,18*6B
$GLGSV,3,3,22,72,09,042,16*58
$GPGSV,3,1,22,02,66,299,32,04,27,033,31,05,30,178,35,06,50,015,29*7B
$GPGSV,3,2,22,10,50,112,26,12,28,326,27,24,31,265,33,28,17,133,31*7B
$GPGSV,3,3,22,17,23,061,,26,00,000,*7D
$GLGSV,3,1,22,78,54,264,25,66,23,151,30,77,31,189,30,79,21,320,17*62
$GLGSV,3,2,22,65,33,092,30,88,31,007,19,87,08,052,19,81,23,303,18*6B
$GLGSV,3,3,22,72,09,042,16*58
$GPGSA,A,3,02,04,05,06,10,12,24,28,,,,,1.1,0.7,0.8*36
$GPVTG,245.6,T,245.6,M,9.2,N,17.1,K,D*1A
$GPRMC,233142,A,1939.268255,N,09922.965838,W,9.2,245.6,090714,0.0,E,D*09
$GPGGA,233142,1939.268255,N,09922.965838,W,2,08,0.7,2607.0,M,0.0,M,,*5F
$GPGSV,3,1,22,02,66,299,30,04,27,033,30,05,30,178,38,06,50,015,28*74
$GPGSV,3,2,22,10,50,112,25,12,28,326,27,24,31,265,29,28,17,133,30*72
$GPGSV,3,3,22,17,23,061,,26,00,000,*7D
$GLGSV,3,1,22,78,54,264,28,66,23,151,32,77,31,189,29,79,21,320,17*65
$GLGSV,3,2,22,65,33,092,31,88,31,007,24,87,08,052,19,81,23,303,19*65
$GLGSV,3,3,22,72,09,042,16*58
$GPGSV,3,1,22,02,66,299,30,04,27,033,30,05,30,178,38,06,50,015,28*74
$GPGSV,3,2,22,10,50,112,25,12,28,326,27,24,31,265,29,28,17,133,30*72
$GPGSV,3,3,22,17,23,061,,26,00,000,*7D
$GLGSV,3,1,22,78,54,264,28,66,23,151,32,77,31,189,29,79,21,320,17*65
$GLGSV,3,2,22,65,33,092,31,88,31,007,24,87,08,052,19,81,23,303,19*65
$GLGSV,3,3,22,72,09,042,16*58
$GPGSA,A,3,02,04,05,06,10,12,24,28,,,,,1.1,0.7,0.8*36
$GPVTG,245.9,T,245.9,M,9.2,N,17.1,K,D*1A
$GPRMC,233143,A,1939.267213,N,09922.968298,W,9.2,245.9,090714,0.0,E,D*07
$GPGGA,233143,1939.267213,N,09922.968298,W,2,08,0.7,2608.0,M,0.0,M,,*51
$GPGSV,3,1,22,02,66,299,33,04,27,033,30,05,30,178,39,06,50,015,29*77
$GPGSV,3,2,22,10,50,112,29,24,31,265,28,28,17,133,31,12,28,326,*7B
$GPGSV,3,3,22,17,23,061,,26,00,000,*7D
$GLGSV,3,1,22,78,54,264,28,66,23,151,29,77,31,189,29,79,21,320,17*6F
$GLGSV,3,2,22,65,33,092,30,88,31,007,25,87,08,052,15,81,23,303,19*69
$GLGSV,3,3,22,72,09,042,15*5B
$GPGSV,3,1,22,02,66,299,33,04,27,033,30,05,30,178,39,06,50,015,29*77
$GPGSV,3,2,22,10,50,112,29,24,31,265,28,28,17,133,31,12,28,326,*7B
$GPGSV,3,3,22,17,23,061,,26,00,000,*7D
$GLGSV,3,1,22,78,54,264,28,66,23,151,29,77,31,189,29,79,21,320,17*6F
$GLGSV,3,2,22,65,33,092,30,88,31,007,25,87,08,052,15,81,23,303,19*69
$GLGSV,3,3,22,72,09,042,15*5B
$GPGSA,A,3,02,04,05,06,10,24,28,,,,,,1.1,0.7,0.8*35
$GPVTG,244.9,T,244.9,M,9.2,N,17.1,K,D*1A
$GPRMC,233144,A,1939.266092,N,09922.970787,W,9.2,244.9,090714,0.0,E,D*09
$GPGGA,233144,1939.266092,N,09922.970787,W,2,07,0.7,2609.0,M,0.0,M,,*50
$GPGSV,3,1,22,02,66,299,39,05,30,178,39,06,50,015,26,10,50,112,31*74
$GPGSV,3,2,22,12,28,326,29,24,31,265,27,28,17,133,31,04,27,033,*73
$GPGSV,3,3,22,17,23,061,,26,00,000,*7D
$GLGSV,3,1,22,78,54,264,30,66,23,151,27,77,31,189,29,79,21,320,14*6B
$GLGSV,3,2,22,65,33,092,28,88,31,007,27,87,08,052,16,81,23,303,17*6F
$GLGSV,3,3,22,72,09,042,17*59
$GPGSV,3,1,22,02,66,299,39,05,30,178,39,06,50,015,26,10,50,112,31*74
$GPGSV,3,2,22,12,28,326,29,24,31,265,27,28,17,133,31,04,27,033,*73
$GPGSV,3,3,22,17,23,061,,26,00,000,*7D
$GLGSV,3,1,22,78,54,264,30,66,23,151,27,77,31,189,29,79,21,320,14*6B
$GLGSV,3,2,22,65,33,092,28,88,31,007,27,87,08,052,16,81,23,303,17*6F
$GLGSV,3,3,22,72,09,042,17*59
$GPGSA,A,3,02,05,06,10,12,24,28,,,,,,1.0,0.6,0.8*32
$GPVTG,244.1,T,244.1,M,9.2,N,17.1,K,D*1A
$GPRMC,233145,A,1939.264926,N,09922.973247,W,9.2,244.1,090714,0.0,E,D*0E
$GPGGA,233145,1939.264926,N,09922.973247,W,2,07,0.6,2609.0,M,0.0,M,,*5E
$GPGSV,3,1,22,02,66,299,39,05,30,178,40,06,50,015,29,10,50,112,30*74
$GPGSV,3,2,22,24,31,265,28,28,17,133,27,04,27,033,,12,28,326,*70
$GPGSV,3,3,22,17,23,061,,26,00,000,*7D
$GLGSV,3,1,22,78,54,264,32,66,23,151,25,77,31,189,26,79,21,320,26*65
$GLGSV,3,2,22,65,33,092,30,88,31,007,21,87,08,052,16,81,23,303,24*60
$GLGSV,3,3,22,72,09,042,21*5C
$GPGSV,3,1,22,02,66,299,39,05,30,178,40,06,50,015,29,10,50,112,30*74
$GPGSV,3,2,22,24,31,265,28,28,17,133,27,04,27,033,,12,28,326,*70
$GPGSV,3,3,22,17,23,061,,26,00,000,*7D
$GLGSV,3,1,22,78,54,264,32,66,23,151,25,77,31,189,26,79,21,320,26*65
$GLGSV,3,2,22,65,33,092,30,88,31,007,21,87,08,052,16,81,23,303,24*60
$GLGSV,3,3,22,72,09,042,21*5C
$GPGSA,A,3,02,05,06,10,24,28,,,,,,,1.1,0.7,0.8*31
$GPVTG,244.0,T,244.0,M,9.2,N,17.1,K,D*1A
$GPRMC,233146,A,1939.263795,N,09922.975664,W,9.2,244.0,090714,0.0,E,D*0E
$GPGGA,233146,1939.263795,N,09922.975664,W,2,06,0.7,2609.0,M,0.0,M,,*5F
$GPGSV,3,1,22,02,66,299,39,04,27,033,25,05,30,178,39,10,50,112,31*71
$GPGSV,3,2,22,24,31,265,33,28,17,133,35,06,50,015,,12,28,326,*7F
$GPGSV,3,3,22,17,23,061,,26,00,000,*7D
$GLGSV,3,1,22,78,54,264,32,66,23,151,26,77,31,189,26,79,21,320,26*66
$GLGSV,3,2,22,65,33,092,29,88,31,007,27,87,08,052,16,81,23,303,16*6F
$GLGSV,3,3,22,72,09,042,16*58
$GPGSV,3,1,22,02,66,299,39,04,27,033,25,05,30,178,39,10,50,112,31*71
$GPGSV,3,2,22,24,31,265,33,28,17,133,35,06,50,015,,12,28,326,*7F
$GPGSV,3,3,22,17,23,061,,26,00,000,*7D
$GLGSV,3,1,22,78,54,264,32,66,23,151,26,77,31,189,26,79,21,320,26*66
$GLGSV,3,2,22,65,33,092,29,88,31,007,27,87,08,052,16,81,23,303,16*6F
$GLGSV,3,3,22,72,09,042,16*58
$GPGSA,A,3,02,04,05,10,24,28,,,,,,,1.1,0.7,0.8*33
$GPVTG,244.6,T,244.6,M,9.2,N,17.1,K,D*1A
$GPRMC,233147,A,1939.262619,N,09922.978328,W,9.2,244.6,090714,0.0,E,D*0D
$GPGGA,233147,1939.262619,N,09922.978328,W,2,06,0.7,2609.0,M,0.0,M,,*5A
$GPGSV,3,1,22,02,66,299,39,05,30,178,43,10,50,112,31,24,31,265,34*78
$GPGSV,3,2,22,28,17,133,34,04,27,033,,06,50,015,,12,28,326,*7A
$GPGSV,3,3,22,17,23,061,,26,00,000,*7D
$GLGSV,3,1,22,78,54,264,32,66,23,151,31,77,31,189,24,79,21,320,15*62
$GLGSV,3,2,22,65,33,092,25,88,31,007,27,87,08,052,16,81,23,303,16*63
$GLGSV,3,3,22,72,09,042,17*59
$GPGSV,3,1,22,02,66,299,39,05,30,178,43,10,50,112,31,24,31,265,34*78
$GPGSV,3,2,22,28,17,133,34,04,27,033,,06,50,015,,12,28,326,*7A
$GPGSV,3,3,22,17,23,061,,26,00,000,*7D
$GLGSV,3,1,22,78,54,264,32,66,23,151,31,77,31,189,24,79,21,320,15*62
$GLGSV,3,2,22,65,33,092,25,88,31,007,27,87,08,052,16,81,23,303,16*63
$GLGSV,3,3,22,72,09,042,17*59
$GPGSA,A,3,02,05,10,24,28,,,,,,,,1.1,0.7,0.8*37
$GPVTG,244.7,T,244.7,M,9.2,N,17.1,K,D*1A
$GPRMC,233148,A,1939.261512,N,09922.980875,W,9.2,244.7,090714,0.0,E,D*0C
$GPGGA,233148,1939.261512,N,09922.980875,W,2,05,0.7,2609.0,M,0.0,M,,*59
$GPGSV,3,1,22,02,66,299,38,05,30,178,39,10,50,112,32,24,31,265,32*71
$GPGSV,3,2,22,28,17,133,32,04,27,033,,06,50,015,,12,28,326,*7C
$GPGSV,3,3,22,17,23,061,,26,00,000,*7D
$GLGSV,3,1,22,78,54,264,31,66,23,151,27,77,31,189,28,79,21,320,18*67
$GLGSV,3,2,22,65,33,092,29,88,31,007,27,87,08,052,16,81,23,303,16*6F
$GLGSV,3,3,22,72,09,042,17*59
$GPGSV,3,1,22,02,66,299,38,05,30,178,39,10,50,112,32,24,31,265,32*71
$GPGSV,3,2,22,28,17,133,32,04,27,033,,06,50,015,,12,28,326,*7C
$GPGSV,3,3,22,17,23,061,,26,00,000,*7D
$GLGSV,3,1,22,78,54,264,31,66,23,151,27,77,31,189,28,79,21,320,18*67
$GLGSV,3,2,22,65,33,092,29,88,31,007,27,87,08,052,16,81,23,303,16*6F
$GLGSV,3,3,22,72,09,042,17*59
$GPGSA,A,3,02,05,10,24,28,,,,,,,,1.1,0.7,0.8*37
$GPVTG,244.2,T,244.2,M,9.2,N,17.1,K,D*1A
$GPRMC,233149,A,1939.260386,N,09922.983376,W,9.2,244.2,090714,0.0,E,D*09
$GPGGA,233149,1939.260386,N,09922.983376,W,2,05,0.7,2609.0,M,0.0,M,,*59
$GPGSV,3,1,22,02,66,299,35,05,30,178,38,06,50,015,29,10,50,112,32*75
$GPGSV,3,2,22,24,31,265,33,28,17,133,29,04,27,033,,12,28,326,*74
$GPGSV,3,3,22,17,23,061,,26,00,000,*7D
$GLGSV,3,1,22,78,54,264,29,66,23,151,27,77,31,189,22,79,21,320,18*64
$GLGSV,3,2,22,65,33,092,28,88,31,007,16,87,08,052,17,81,23,303,20*68
$GLGSV,3,3,22,72,09,042,17*59
$GPGSV,3,1,22,02,66,299,35,05,30,178,38,06,50,015,29,10,50,112,32*75
$GPGSV,3,2,22,24,31,265,33,28,17,133,29,04,27,033,,12,28,326,*74
$GPGSV,3,3,22,17,23,061,,26,00,000,*7D
$GLGSV,3,1,22,78,54,264,29,66,23,151,27,77,31,189,22,79,21,320,18*64
$GLGSV,3,2,22,65,33,092,28,88,31,007,16,87,08,052,17,81,23,303,20*68
$GLGSV,3,3,22,72,09,042,17*59
$GPGSA,A,3,02,05,06,10,24,28,,,,,,,1.1,0.7,0.8*31
$GPVTG,243.9,T,243.9,M,9.2,N,17.1,K,D*1A
$GPRMC,233150,A,1939.259257,N,09922.985830,W,9.2,243.9,090714,0.0,E,D*05
$GPGGA,233150,1939.259257,N,09922.985830,W,2,06,0.7,2609.0,M,0.0,M,,*5A
$GPGSV,3,1,22,02,66,299,37,05,30,178,39,06,50,015,25,10,50,112,31*79
$GPGSV,3,2,22,24,31,265,34,28,17,133,29,04,27,033,,12,28,326,*73
$GPGSV,3,3,22,17,23,061,,26,00,000,*7D
$GLGSV,3,1,22,78,54,264,32,66,23,151,27,77,31,189,26,79,21,320,16*64
$GLGSV,3,2,22,65,33,092,28,88,31,007,19,87,08,052,16,81,23,303,23*65
$GLGSV,3,3,22,72,09,042,15*5B
$GPGSV,3,1,22,02,66,299,37,05,30,178,39,06,50,015,25,10,50,112,31*79
$GPGSV,3,2,22,24,31,265,34,28,17,133,29,04,27,033,,12,28,326,*73
$GPGSV,3,3,22,17,23,061,,26,00,000,*7D
$GLGSV,3,1,22,78,54,264,32,66,23,151,27,77,31,189,26,79,21,320,16*64
$GLGSV,3,2,22,65,33,092,28,88,31,007,19,87,08,052,16,81,23,303,23*65
$GLGSV,3,3,22,72,09,042,15*5B
$GPGSA,A,3,02,05,06,10,24,28,,,,,,,1.0,0.6,0.8*31
$GPVTG,243.8,T,243.8,M,8.3,N,15.3,K,D*1A
$GPRMC,233151,A,1939.258289,N,09922.987961,W,8.3,243.8,090714,0.0,E,D*00
$GPGGA,233151,1939.258289,N,09922.987961,W,2,06,0.6,2608.0,M,0.0,M,,*5E
$GPGSV,3,1,22,02,66,299,37,05,30,178,40,10,50,112,33,24,31,265,35*76
$GPGSV,3,2,22,28,17,133,30,04,27,033,,06,50,015,,12,28,326,*7E
$GPGSV,3,3,22,17,23,061,,26,00,000,*7D
$GLGSV,3,1,22,78,54,264,32,66,23,151,24,77,31,189,26,79,21,320,20*62
$GLGSV,3,2,22,65,33,092,28,88,31,007,19,87,08,052,16,81,23,303,24*62
$GLGSV,3,3,22,72,09,042,15*5B
$GPGSV,3,1,22,02,66,299,37,05,30,178,40,10,50,112,33,24,31,265,35*76
$GPGSV,3,2,22,28,17,133,30,04,27,033,,06,50,015,,12,28,326,*7E
$GPGSV,3,3,22,17,23,061,,26,00,000,*7D
$GLGSV,3,1,22,78,54,264,32,66,23,151,24,77,31,189,26,79,21,320,20*62
$GLGSV,3,2,22,65,33,092,28,88,31,007,19,87,08,052,16,81,23,303,24*62
$GLGSV,3,3,22,72,09,042,15*5B
$GPGSA,A,3,02,05,10,24,28,,,,,,,,1.1,0.7,0.9*36
$GPVTG,244.1,T,244.1,M,8.3,N,15.3,K,D*1A
$GPRMC,233152,A,1939.257293,N,09922.990181,W,8.3,244.1,090714,0.0,E,D*09
$GPGGA,233152,1939.257293,N,09922.990181,W,2,05,0.7,2608.0,M,0.0,M,,*5B
$GPGSV,3,1,22,02,66,299,36,05,30,178,40,10,50,112,33,24,31,265,37*75
$GPGSV,3,2,22,28,17,133,31,04,27,033,,06,50,015,,12,28,326,*7F
$GPGSV,3,3,22,17,23,061,,26,00,000,*7D
$GLGSV,3,1,22,78,54,264,33,66,23,151,24,77,31,189,25,79,21,320,19*6A
$GLGSV,3,2,22,65,33,092,28,88,31,007,16,87,08,052,16,81,23,303,23*6A
$GLGSV,3,3,22,72,09,042,15*5B
$GPGSV,3,1,22,02,66,299,36,05,30,178,40,10,50,112,33,24,31,265,37*75
$GPGSV,3,2,22,28,17,133,31,04,27,033,,06,50,015,,12,28,326,*7F
$GPGSV,3,3,22,17,23,061,,26,00,000,*7D
$GLGSV,3,1,22,78,54,264,33,66,23,151,24,77,31,189,25,79,21,320,19*6A
$GLGSV,3,2,22,65,33,092,28,88,31,007,16,87,08,052,16,81,23,303,23*6A
$GLGSV,3,3,22,72,09,042,15*5B
$GPGSA,A,3,02,05,10,24,28,,,,,,,,1.1,0.7,0.9*36
$GPVTG,244.1,T,244.1,M,8.3,N,15.3,K,D*1A
$GPRMC,233153,A,1939.256264,N,09922.992404,W,8.3,244.1,090714,0.0,E,D*0B
$GPGGA,233153,1939.256264,N,09922.992404,W,2,05,0.7,2608.0,M,0.0,M,,*59
$GPGSV,3,1,22,02,66,299,36,05,30,178,41,06,50,015,29,10,50,112,31*7B
$GPGSV,3,2,22,24,31,265,38,28,17,133,26,04,27,033,,12,28,326,*70
$GPGSV,3,3,22,17,23,061,,26,00,000,*7D
$GLGSV,3,1,22,78,54,264,32,66,23,151,28,77,31,189,25,79,21,320,18*66
$GLGSV,3,2,22,65,33,092,26,88,31,007,21,87,08,052,16,81,23,303,19*69
$GLGSV,3,3,22,72,09,042,15*5B
$GPGSV,3,1,22,02,66,299,36,05,30,178,41,06,50,015,29,10,50,112,31*7B
$GPGSV,3,2,22,24,31,265,38,28,17,133,26,04,27,033,,12,28,326,*70
$GPGSV,3,3,22,17,23,061,,26,00,000,*7D
$GLGSV,3,1,22,78,54,264,32,66,23,151,28,77,31,189,25,79,21,320,18*66
$GLGSV,3,2,22,65,33,092,26,88,31,007,21,87,08,052,16,81,23,303,19*69
$GLGSV,3,3,22,72,09,042,15*5B
$GPGSA,A,3,02,05,06,10,24,28,,,,,,,1.2,0.8,0.9*3C
$GPVTG,244.1,T,244.1,M,8.3,N,15.3,K,D*1A
$GPRMC,233154,A,1939.255310,N,09922.994492,W,8.3,244.1,090714,0.0,E,D*04
$GPGGA,233154,1939.255310,N,09922.994492,W,2,06,0.8,2607.0,M,0.0,M,,*55
$GPGSV,3,1,22,02,66,299,37,05,30,178,40,06,50,015,28,10,50,112,33*78
$GPGSV,3,2,22,24,31,265,40,28,17,133,36,04,27,033,,12,28,326,*7E
$GPGSV,3,3,22,17,23,061,,26,00,000,*7D
$GLGSV,3,1,22,78,54,264,32,66,23,151,29,77,31,189,21,79,21,320,18*63
$GLGSV,3,2,22,65,33,092,26,88,31,007,20,87,08,052,13,81,23,303,18*6C
$GLGSV,3,3,22,72,09,042,15*5B
$GPGSV,3,1,22,02,66,299,37,05,30,178,40,06,50,015,28,10,50,112,33*78
$GPGSV,3,2,22,24,31,265,40,28,17,133,36,04,27,033,,12,28,326,*7E
$GPGSV,3,3,22,17,23,061,,26,00,000,*7D
$GLGSV,3,1,22,78,54,264,32,66,23,151,29,77,31,189,21,79,21,320,18*63
$GLGSV,3,2,22,65,33,092,26,88,31,007,20,87,08,052,13,81,23,303,18*6C
$GLGSV,3,3,22,72,09,042,15*5B
$GPGSA,A,3,02,05,06,10,24,28,,,,,,,1.2,0.8,0.9*3C
$GPVTG,244.1,T,244.1,M,7.8,N,14.4,K,D*18
$GPRMC,233155,A,1939.254344,N,09922.996658,W,7.8,244.1,090714,0.0,E,D*07
$GPGGA,233155,1939.254344,N,09922.996658,W,2,06,0.8,2607.0,M,0.0,M,,*52
$GPGSV,3,1,22,02,66,299,36,05,30,178,41,06,50,015,30,10,50,112,33*71
$GPGSV,3,2,22,24,31,265,38,28,17,133,34,04,27,033,,12,28,326,*73
$GPGSV,3,3,22,17,23,061,,26,00,000,*7D
$GLGSV,3,1,22,78,54,264,32,66,23,151,32,77,31,189,24,79,21,320,15*61
$GLGSV,3,2,22,65,33,092,28,88,31,007,21,87,08,052,13,81,23,303,19*62
$GLGSV,3,3,22,72,09,042,15*5B
$GPGSV,3,1,22,02,66,299,36,05,30,178,41,06,50,015,30,10,50,112,33*71
$GPGSV,3,2,22,24,31,265,38,28,17,133,34,04,27,033,,12,28,326,*73
$GPGSV,3,3,22,17,23,061,,26,00,000,*7D
$GLGSV,3,1,22,78,54,264,32,66,23,151,32,77,31,189,24,79,21,320,15*61
$GLGSV,3,2,22,65,33,092,28,88,31,007,21,87,08,052,13,81,23,303,19*62
$GLGSV,3,3,22,72,09,042,15*5B
$GPGSA,A,3,02,05,06,10,24,28,,,,,,,1.2,0.8,0.9*3C
$GPVTG,244.3,T,244.3,M,7.8,N,14.4,K,D*18
$GPRMC,233156,A,1939.253456,N,09922.998636,W,7.8,244.3,090714,0.0,E,D*03
$GPGGA,233156,1939.253456,N,09922.998636,W,2,06,0.8,2607.0,M,0.0,M,,*54
$GPGSV,3,1,22,02,66,299,36,05,30,178,41,06,50,015,30,10,50,112,31*73
$GPGSV,3,2,22,24,31,265,39,28,17,133,37,04,27,033,,12,28,326,*71
$GPGSV,3,3,22,17,23,061,,26,00,000,*7D
$GLGSV,3,1,22,78,54,264,32,66,23,151,31,77,31,189,23,79,21,320,15*65
$GLGSV,3,2,22,65,33,092,25,88,31,007,23,87,08,052,13,81,23,303,21*66
$GLGSV,3,3,22,72,09,042,17*59
$GPGSV,3,1,22,02,66,299,36,05,30,178,41,06,50,015,30,10,50,112,31*73
$GPGSV,3,2,22,24,31,265,39,28,17,133,37,04,27,033,,12,28,326,*71
$GPGSV,3,3,22,17,23,061,,26,00,000,*7D
$GLGSV,3,1,22,78,54,264,32,66,23,151,31,77,31,189,23,79,21,320,15*65
$GLGSV,3,2,22,65,33,092,25,88,31,007,23,87,08,052,13,81,23,303,21*66
$GLGSV,3,3,22,72,09,042,17*59
$GPGSA,A,3,02,05,06,10,24,28,,,,,,,1.2,0.8,0.9*3C
$GPVTG,244.4,T,244.4,M,7.8,N,14.4,K,D*18
$GPRMC,233157,A,1939.252590,N,09923.000504,W,7.8,244.4,090714,0.0,E,D*04
$GPGGA,233157,1939.252590,N,09923.000504,W,2,06,0.8,2607.0,M,0.0,M,,*54
$GPGSV,3,1,22,02,66,299,37,05,30,178,35,06,50,015,27,10,50,112,30*76
$GPGSV,3,2,22,12,28,326,32,24,31,265,38,28,17,133,32,04,27,033,*74
$GPGSV,3,3,22,17,23,061,,26,00,000,*7D
$GLGSV,3,1,22,78,54,264,32,66,23,151,27,77,31,189,22,79,21,320,15*63
$GLGSV,3,2,22,65,33,092,26,88,31,007,18,87,08,052,14,81,23,303,22*69
$GLGSV,3,3,22,72,09,042,18*56
$GPGSV,3,1,22,02,66,299,37,05,30,178,35,06,50,015,27,10,50,112,30*76
$GPGSV,3,2,22,12,28,326,32,24,31,265,38,28,17,133,32,04,27,033,*74
$GPGSV,3,3,22,17,23,061,,26,00,000,*7D
$GLGSV,3,1,22,78,54,264,32,66,23,151,27,77,31,189,22,79,21,320,15*63
$GLGSV,3,2,22,65,33,092,26,88,31,007,18,87,08,052,14,81,23,303,22*69
$GLGSV,3,3,22,72,09,042,18*56
$GPGSA,A,3,02,05,06,10,12,24,28,,,,,,1.1,0.7,0.8*32
$GPVTG,244.5,T,244.5,M,6.3,N,11.7,K,D*14
$GPRMC,233158,A,1939.251793,N,09923.002065,W,6.3,244.5,090714,0.0,E,D*02
$GPGGA,233158,1939.251793,N,09923.002065,W,2,07,0.7,2609.0,M,0.0,M,,*59
$GPGSV,3,1,22,02,66,299,38,05,30,178,32,06,50,015,30,10,50,112,31*79
$GPGSV,3,2,22,12,28,326,27,24,31,265,33,28,17,133,36,04,27,033,*7F
$GPGSV,3,3,22,17,23,061,,26,00,000,*7D
$GLGSV,3,1,22,78,54,264,33,66,23,151,27,77,31,189,21,79,21,320,21*66
$GLGSV,3,2,22,65,33,092,28,88,31,007,21,87,08,052,17,81,23,303,28*64
$GLGSV,3,3,22,72,09,042,18*56
$GPGSV,3,1,22,02,66,299,38,05,30,178,32,06,50,015,30,10,50,112,31*79
$GPGSV,3,2,22,12,28,326,27,24,31,265,33,28,17,133,36,04,27,033,*7F
$GPGSV,3,3,22,17,23,061,,26,00,000,*7D
$GLGSV,3,1,22,78,54,264,33,66,23,151,27,77,31,189,21,79,21,320,21*66
$GLGSV,3,2,22,65,33,092,28,88,31,007,21,87,08,052,17,81,23,303,28*64
$GLGSV,3,3,22,72,09,042,18*56
$GPGSA,A,3,02,05,06,10,12,24,28,,,,,,1.1,0.7,0.8*32
$GPVTG,244.9,T,244.9,M,5.3,N,9.9,K,D*20
$GPRMC,233159,A,1939.251149,N,09923.003365,W,5.3,244.9,090714,0.0,E,D*0F
$GPGGA,233159,1939.251149,N,09923.003365,W,2,07,0.7,2608.0,M,0.0,M,,*5A
$GPGSV,3,1,22,02,66,299,39,05,30,178,30,06,50,015,28,10,50,112,31*73
$GPGSV,3,2,22,12,28,326,28,24,31,265,34,28,17,133,28,04,27,033,*78
$GPGSV,3,3,22,17,23,061,,26,00,000,*7D
$GLGSV,3,1,22,78,54,264,33,66,23,151,24,77,31,189,20,79,21,320,23*66
$GLGSV,3,2,22,65,33,092,27,88,31,007,25,87,08,052,20,81,23,303,26*65
$GLGSV,3,3,22,72,09,042,18*56
$GPGSV,3,1,22,02,66,299,39,05,30,178,30,06,50,015,28,10,50,112,31*73
$GPGSV,3,2,22,12,28,326,28,24,31,265,34,28,17,133,28,04,27,033,*78
$GPGSV,3,3,22,17,23,061,,26,00,000,*7D
$GLGSV,3,1,22,78,54,264,33,66,23,151,24,77,31,189,20,79,21,320,23*66
$GLGSV,3,2,22,65,33,092,27,88,31,007,25,87,08,052,20,81,23,303,26*65
$GLGSV,3,3,22,72,09,042,18*56
$GPGSA,A,3,02,05,06,10,12,24,28,,,,,,1.1,0.7,0.8*32
$GPVTG,244.9,T,244.9,M,4.9,N,9.0,K,D*22
$GPRMC,233200,A,1939.250522,N,09923.004532,W,4.9,244.9,090714,0.0,E,D*00
$GPGGA,233200,1939.250522,N,09923.004532,W,2,07,0.7,2609.0,M,0.0,M,,*5F
$GPGSV,3,1,22,02,66,299,39,05,30,178,27,06,50,015,28,10,50,112,31*75
$GPGSV,3,2,22,12,28,326,27,24,31,265,32,28,17,133,32,04,27,033,*7A
$GPGSV,3,3,22,17,23,061,,26,00,000,*7D
$GLGSV,3,1,22,78,54,264,32,66,23,151,18,77,31,189,22,79,21,320,24*6D
$GLGSV,3,2,22,65,33,092,28,88,31,007,30,87,08,052,20,81,23,303,26*6E
$GLGSV,3,3,22,72,09,042,18*56
$GPGSV,3,1,22,02,66,299,39,05,30,178,27,06,50,015,28,10,50,112,31*75
$GPGSV,3,2,22,12,28,326,27,24,31,265,32,28,17,133,32,04,27,033,*7A
$GPGSV,3,3,22,17,23,061,,26,00,000,*7D
$GLGSV,3,1,22,78,54,264,32,66,23,151,18,77,31,189,22,79,21,320,24*6D
$GLGSV,3,2,22,65,33,092,28,88,31,007,30,87,08,052,20,81,23,303,26*6E
$GLGSV,3,3,22,72,09,042,18*56
$GPGSA,A,3,02,05,06,10,12,24,28,,,,,,1.1,0.7,0.8*32
$GPVTG,244.0,T,244.0,M,3.9,N,7.2,K,D*29
$GPRMC,233201,A,1939.250002,N,09923.005439,W,3.9,244.0,090714,0.0,E,D*03
$GPGGA,233201,1939.250002,N,09923.005439,W,2,07,0.7,2610.0,M,0.0,M,,*5A
$GPGSV,3,1,22,02,66,299,39,05,30,178,27,06,50,015,28,10,50,112,32*76
$GPGSV,3,2,22,24,31,265,33,28,17,133,29,04,27,033,,12,28,326,*74
$GPGSV,3,3,22,17,23,061,,26,00,000,*7D
$GLGSV,3,1,22,78,54,264,32,66,23,151,21,77,31,189,22,79,21,320,16*66
$GLGSV,3,2,22,65,33,092,29,88,31,007,28,87,08,052,15,81,23,303,19*6C
$GLGSV,3,3,22,72,09,042,15*5B
$GPGSV,3,1,22,02,66,299,39,05,30,178,27,06,50,015,28,10,50,112,32*76
$GPGSV,3,2,22,24,31,265,33,28,17,133,29,04,27,033,,12,28,326,*74
$GPGSV,3,3,22,17,23,061,,26,00,000,*7D
$GLGSV,3,1,22,78,54,264,32,66,23,151,21,77,31,189,22,79,21,320,16*66
$GLGSV,3,2,22,65,33,092,29,88,31,007,28,87,08,052,15,81,23,303,19*6C
$GLGSV,3,3,22,72,09,042,15*5B
$GPGSA,A,3,02,05,06,10,24,28,,,,,,,1.1,0.7,0.8*31
$GPVTG,243.6,T,243.6,M,3.4,N,6.3,K,D*24
