$GPGSV,3,1,10,14,05,206,15,15,59,056,22,18,45,293,23,21,38,333,27*7E
$GPGSV,3,2,10,22,16,261,18,24,17,136,23,25,08,191,16,26,22,042,20*76
$GPGSV,3,3,10,29,71,188,21,05,,,*42
$GLGSV,2,1,07,66,13,026,12,82,55,343,25,81,62,132,22,67,52,340,20*63
$GLGSV,2,2,07,68,37,257,23,88,09,146,,83,,,*68
$GPGGA,233809.8,1928.704697,N,09907.865856,W,1,09,0.8,2220.7,M,0.0,M,,*4F
$GNGNS,233809.8,1928.704697,N,09907.865856,W,AA,14,0.8,2220.7,0.0,,*77
$GPVTG,218.6,T,218.6,M,28.4,N,52.6,K,A*2C
$GPRMC,233809.8,A,1928.704697,N,09907.865856,W,28.4,218.6,260914,0.0,E,A*29
$GPGSA,A,2,14,15,18,21,22,24,25,26,29,,,,1.1,0.8,0.7*39
$GNGSA,A,2,14,15,18,21,22,24,25,26,29,,,,1.1,0.8,0.7*27
$GNGSA,A,2,66,82,81,67,68,,,,,,,,1.1,0.8,0.7*2E
$GPGSV,3,1,10,14,05,206,15,15,59,056,24,18,45,293,24,21,38,333,21*79
$GPGSV,3,2,10,22,16,261,22,24,17,136,25,25,08,191,16,26,22,042,22*7B
$GPGSV,3,3,10,29,71,188,21,05,,,*42
$GLGSV,2,1,07,66,13,026,12,82,55,343,23,81,62,132,22,67,52,340,18*6E
$GLGSV,2,2,07,68,37,257,16,88,09,146,,83,,,*6E
$GPGGA,233810.8,1928.696539,N,09907.870779,W,1,09,0.8,2221.4,M,0.0,M,,*4E
$GNGNS,233810.8,1928.696539,N,09907.870779,W,AA,14,0.8,2221.4,0.0,,*76
$GPVTG,219.5,T,219.5,M,28.0,N,51.9,K,A*24
$GPRMC,233810.8,A,1928.696539,N,09907.870779,W,28.0,219.5,260914,0.0,E,A*2C
$GPGSA,A,2,14,15,18,21,22,24,25,26,29,,,,1.1,0.8,0.7*39
$GNGSA,A,2,14,15,18,21,22,24,25,26,29,,,,1.1,0.8,0.7*27
$GNGSA,A,2,66,82,81,67,68,,,,,,,,1.1,0.8,0.7*2E
$GPGSV,3,1,10,14,05,206,14,15,59,056,20,18,45,293,22,21,38,333,24*7F
$GPGSV,3,2,10,22,16,261,19,24,17,136,23,25,08,191,16,26,22,042,19*7D
$GPGSV,3,3,10,29,71,188,19,05,,,*49
$GLGSV,2,1,07,66,13,026,12,82,55,343,23,81,62,132,20,67,52,340,18*6C
$GLGSV,2,2,07,68,37,257,20,88,09,146,,83,,,*6B
$GPGGA,233811.8,1928.690499,N,09907.880503,W,1,09,0.8,2220.8,M,0.0,M,,*4F
$GNGNS,233811.8,1928.690499,N,09907.880503,W,AA,14,0.8,2220.8,0.0,,*77
$GPVTG,220.6,T,220.6,M,27.6,N,51.2,K,A*26
$GPRMC,233811.8,A,1928.690499,N,09907.880503,W,27.6,220.6,260914,0.0,E,A*20
$GPGSA,A,2,14,15,18,21,22,24,25,26,29,,,,1.1,0.8,0.7*39
$GNGSA,A,2,14,15,18,21,22,24,25,26,29,,,,1.1,0.8,0.7*27
$GNGSA,A,2,66,82,81,67,68,,,,,,,,1.1,0.8,0.7*2E
$GPGSV,3,1,10,14,05,206,14,15,59,056,23,18,45,293,22,21,38,333,26*7E
$GPGSV,3,2,10,22,16,261,21,24,17,136,22,25,08,191,16,26,22,042,24*79
$GPGSV,3,3,10,29,71,188,20,05,,,*43
$GLGSV,2,1,08,,,,26,66,13,026,12,82,55,343,21,81,62,132,22*5F
$GLGSV,2,2,08,67,52,340,19,68,37,257,21,88,09,146,,83,,,*5C
$GPGGA,233812.8,1928.690809,N,09907.881624,W,1,09,0.8,2221.1,M,0.0,M,,*46
$GNGNS,233812.8,1928.690809,N,09907.881624,W,AA,14,0.8,2221.1,0.0,,*7E
$GPVTG,221.2,T,221.2,M,26.8,N,49.7,K,A*25
$GPRMC,233812.8,A,1928.690809,N,09907.881624,W,26.8,221.2,260914,0.0,E,A*2B
$GPGSA,A,2,14,15,18,21,22,24,25,26,29,,,,1.1,0.8,0.7*39
$GNGSA,A,2,14,15,18,21,22,24,25,26,29,,,,1.1,0.8,0.7*27
$GNGSA,A,2,66,82,81,67,68,,,,,,,,1.1,0.8,0.7*2E
$GPGSV,3,1,10,14,05,206,14,15,59,056,22,18,45,293,21,21,38,333,25*7F
$GPGSV,3,2,10,22,16,261,19,24,17,136,20,25,08,191,16,26,22,042,18*7F
$GPGSV,3,3,10,29,71,188,24,05,,,*47
$GLGSV,2,1,08,,,,27,66,13,026,12,82,55,343,20,81,62,132,24*59
$GLGSV,2,2,08,67,52,340,21,68,37,257,22,88,09,146,,83,,,*54
$GPGGA,233813.8,1928.685681,N,09907.881385,W,1,09,0.8,2237.5,M,0.0,M,,*40
$GNGNS,233813.8,1928.685681,N,09907.881385,W,AA,14,0.8,2237.5,0.0,,*78
$GPVTG,216.8,T,216.8,M,24.3,N,44.9,K,A*2F
$GPRMC,233813.8,A,1928.685681,N,09907.881385,W,24.3,216.8,260914,0.0,E,A*29
$GPGSA,A,2,14,15,18,21,22,24,25,26,29,,,,1.1,0.8,0.7*39
$GNGSA,A,2,14,15,18,21,22,24,25,26,29,,,,1.1,0.8,0.7*27
$GNGSA,A,2,66,82,81,67,68,,,,,,,,1.1,0.8,0.7*2E
$GPGSV,3,1,10,14,05,206,14,15,59,056,18,18,45,293,23,21,38,333,24*75
$GPGSV,3,2,10,22,16,261,20,24,17,136,21,25,08,191,16,26,22,042,18*74
$GPGSV,3,3,10,29,71,188,26,05,,,*45
$GLGSV,2,1,08,,,,27,66,13,026,12,82,55,343,23,81,62,132,23*5D
$GLGSV,2,2,08,67,52,340,23,68,37,257,22,88,09,146,,83,,,*56
$GPGGA,233814.8,1928.677989,N,09907.889118,W,1,09,0.8,2238.6,M,0.0,M,,*4F
$GNGNS,233814.8,1928.677989,N,09907.889118,W,AA,14,0.8,2238.6,0.0,,*77
$GPVTG,219.5,T,219.5,M,25.6,N,47.5,K,A*24
$GPRMC,233814.8,A,1928.677989,N,09907.889118,W,25.6,219.5,260914,0.0,E,A*2C
$GPGSA,A,2,14,15,18,21,22,24,25,26,29,,,,1.1,0.8,0.7*39
$GNGSA,A,2,14,15,18,21,22,24,25,26,29,,,,1.1,0.8,0.7*27
$GNGSA,A,2,66,82,81,67,68,,,,,,,,1.1,0.8,0.7*2E
$GPGSV,3,1,10,14,05,206,14,15,59,056,19,18,45,293,23,21,38,333,17*74
$GPGSV,3,2,10,22,16,261,20,24,17,136,17,25,08,191,16,26,22,042,18*71
$GPGSV,3,3,10,29,71,188,22,05,,,*41
$GLGSV,2,1,08,,,,19,66,13,026,12,82,55,343,21,81,62,132,21*50
$GLGSV,2,2,08,67,52,340,18,68,37,257,22,88,09,146,,83,,,*5E
$GPGGA,233815.8,1928.670477,N,09907.896734,W,1,09,0.8,2225.2,M,0.0,M,,*4B
$GNGNS,233815.8,1928.670477,N,09907.896734,W,AA,14,0.8,2225.2,0.0,,*73
$GPVTG,221.8,T,221.8,M,24.4,N,45.2,K,A*22
$GPRMC,233815.8,A,1928.670477,N,09907.896734,W,24.4,221.8,260914,0.0,E,A*25
$GPGSA,A,2,14,15,18,21,22,24,25,26,29,,,,1.1,0.8,0.7*39
$GNGSA,A,2,14,15,18,21,22,24,25,26,29,,,,1.1,0.8,0.7*27
$GNGSA,A,2,66,82,81,67,68,,,,,,,,1.1,0.8,0.7*2E
$GPGSV,3,1,10,14,05,206,14,15,59,056,19,18,45,293,23,21,38,333,17*74
$GPGSV,3,2,10,22,16,261,20,24,17,136,17,25,08,191,16,26,22,042,18*71
$GPGSV,3,3,10,29,71,188,22,05,,,*41
$GLGSV,2,1,08,,,,19,66,13,026,12,82,55,343,21,81,62,132,18*5A
$GLGSV,2,2,08,67,52,340,18,68,37,257,22,88,09,146,,83,,,*5E
$GPGGA,233816.8,1928.663308,N,09907.900228,W,1,09,0.8,2225.1,M,0.0,M,,*40
$GNGNS,233816.8,1928.663308,N,09907.900228,W,AA,14,0.8,2225.1,0.0,,*78
$GPVTG,222.6,T,222.6,M,23.2,N,42.9,K,A*2F
$GPRMC,233816.8,A,1928.663308,N,09907.900228,W,23.2,222.6,260914,0.0,E,A*21
$GPGSA,A,2,14,15,18,21,22,24,25,26,29,,,,1.1,0.8,0.7*39
$GNGSA,A,2,14,15,18,21,22,24,25,26,29,,,,1.1,0.8,0.7*27
$GNGSA,A,2,66,82,81,67,68,,,,,,,,1.1,0.8,0.7*2E
$GPGSV,3,1,10,14,05,206,14,15,59,056,19,18,45,293,23,21,38,333,17*74
$GPGSV,3,2,10,22,16,261,20,24,17,136,17,25,08,191,16,26,22,042,18*71
$GPGSV,3,3,10,29,71,188,22,05,,,*41
$GLGSV,2,1,08,,,,19,66,13,026,12,82,55,343,21,81,62,132,18*5A
$GLGSV,2,2,08,67,52,340,18,68,37,257,22,88,09,146,,83,,,*5E
$GPGGA,233817.8,1928.658191,N,09907.905371,W,1,09,0.8,2225.0,M,0.0,M,,*42
$GNGNS,233817.8,1928.658191,N,09907.905371,W,AA,13,0.8,2225.0,0.0,,*7D
$GPVTG,222.6,T,222.6,M,23.8,N,44.0,K,A*2A
$GPRMC,233817.8,A,1928.658191,N,09907.905371,W,23.8,222.6,260914,0.0,E,A*28
$GPGSA,A,2,14,15,18,21,22,24,25,26,29,,,,1.2,0.8,0.8*35
$GNGSA,A,2,14,15,18,21,22,24,25,26,29,,,,1.2,0.8,0.8*2B
$GNGSA,A,2,82,81,67,68,,,,,,,,,1.2,0.8,0.8*22
$GPGSV,3,1,10,14,05,206,14,15,59,056,19,18,45,293,23,21,38,333,17*74
$GPGSV,3,2,10,22,16,261,20,24,17,136,17,25,08,191,16,26,22,042,18*71
$GPGSV,3,3,10,29,71,188,22,05,,,*41
$GLGSV,2,1,08,,,,19,66,13,026,12,82,55,343,21,81,62,132,18*5A
$GLGSV,2,2,08,67,52,340,18,68,37,257,22,88,09,146,,83,,,*5E
$GPGGA,233818.8,1928.651410,N,09907.910642,W,1,07,1.0,2224.9,M,0.0,M,,*46
$GNGNS,233818.8,1928.651410,N,09907.910642,W,AA,11,1.0,2224.9,0.0,,*75
$GPVTG,222.3,T,222.3,M,24.2,N,44.8,K,A*2F
$GPRMC,233818.8,A,1928.651410,N,09907.910642,W,24.2,222.3,260914,0.0,E,A*2B
$GPGSA,A,2,15,18,21,22,24,26,29,,,,,,1.3,1.0,0.8*3F
$GNGSA,A,2,15,18,21,22,24,26,29,,,,,,1.3,1.0,0.8*21
$GNGSA,A,2,82,81,67,68,,,,,,,,,1.3,1.0,0.8*2A
$GPGSV,3,1,10,14,05,206,14,15,59,056,19,18,45,293,23,21,38,333,17*74
$GPGSV,3,2,10,22,16,261,20,24,17,136,17,25,08,191,16,26,22,042,18*71
$GPGSV,3,3,10,29,71,188,22,05,,,*41
$GLGSV,2,1,08,,,,19,66,13,026,12,82,55,343,21,81,62,132,18*5A
$GLGSV,2,2,08,67,52,340,18,68,37,257,22,88,09,146,,83,,,*5E
$GPGGA,233819.8,1928.646111,N,09907.915639,W,1,07,1.0,2224.8,M,0.0,M,,*4D
$GNGNS,233819.8,1928.646111,N,09907.915639,W,AA,11,1.0,2224.8,0.0,,*7E
$GPVTG,222.2,T,222.2,M,24.3,N,45.0,K,A*27
$GPRMC,233819.8,A,1928.646111,N,09907.915639,W,24.3,222.2,260914,0.0,E,A*21
$GPGSA,A,2,15,18,21,22,24,26,29,,,,,,1.3,1.0,0.8*3F
$GNGSA,A,2,15,18,21,22,24,26,29,,,,,,1.3,1.0,0.8*21
$GNGSA,A,2,82,81,67,68,,,,,,,,,1.3,1.0,0.8*2A
$GPGSV,3,1,10,14,05,206,14,15,59,056,19,18,45,293,23,21,38,333,14*77
$GPGSV,3,2,10,22,16,261,20,24,17,136,17,25,08,191,16,26,22,042,18*71
$GPGSV,3,3,10,29,71,188,22,05,,,*41
$GLGSV,2,1,08,,,,19,66,13,026,12,82,55,343,21,81,62,132,18*5A
$GLGSV,2,2,08,67,52,340,12,68,37,257,22,88,09,146,,83,,,*54
$GPGGA,233820.8,1928.637270,N,09907.921876,W,1,07,1.0,2224.7,M,0.0,M,,*48
$GNGNS,233820.8,1928.637270,N,09907.921876,W,AA,11,1.0,2224.7,0.0,,*7B
$GPVTG,224.6,T,224.6,M,23.7,N,44.0,K,A*25
$GPRMC,233820.8,A,1928.637270,N,09907.921876,W,23.7,224.6,260914,0.0,E,A*2A
$GPGSA,A,2,15,18,21,22,24,26,29,,,,,,1.3,1.0,0.8*3F
$GNGSA,A,2,15,18,21,22,24,26,29,,,,,,1.3,1.0,0.8*21
$GNGSA,A,2,82,81,67,68,,,,,,,,,1.3,1.0,0.8*2A
$GPGSV,3,1,09,14,05,206,14,15,59,056,19,18,45,293,14,21,38,333,17*78
$GPGSV,3,2,09,22,16,261,20,24,17,135,17,25,08,191,16,26,22,042,18*7A
$GPGSV,3,3,09,29,71,188,22*4C
$GLGSV,2,1,08,,,,19,66,13,026,12,82,55,343,21,81,62,132,18*5A
$GLGSV,2,2,08,67,51,340,12,68,37,257,22,88,09,147,,83,,,*56
$GPGGA,233821.8,1928.633593,N,09907.925764,W,1,06,1.3,2225.5,M,0.0,M,,*4E
$GNGNS,233821.8,1928.633593,N,09907.925764,W,AA,09,1.3,2225.5,0.0,,*75
$GPVTG,223.9,T,223.9,M,20.7,N,38.4,K,A*29
$GPRMC,233821.8,A,1928.633593,N,09907.925764,W,20.7,223.9,260914,0.0,E,A*26
$GPGSA,A,2,15,18,21,24,26,29,,,,,,,1.6,1.3,0.9*38
$GNGSA,A,2,15,18,21,24,26,29,,,,,,,1.6,1.3,0.9*26
$GNGSA,A,2,82,81,67,,,,,,,,,,1.6,1.3,0.9*23
$GPGSV,3,1,09,14,05,206,14,15,59,056,19,18,45,293,14,21,38,333,17*78
$GPGSV,3,2,09,22,16,261,20,24,17,135,17,25,08,191,16,26,22,042,18*7A
$GPGSV,3,3,09,29,71,188,22*4C
$GLGSV,2,1,08,,,,19,66,13,026,12,82,55,343,21,81,62,132,18*5A
$GLGSV,2,2,08,67,51,340,12,68,37,257,12,88,09,147,,83,,,*55
$GPGGA,233822.8,,,,,0,,,,,,,,*7A
$GNGNS,233822.8,,,,,NN,,,,,,*4F
$GPVTG,,T,,M,,N,,K,N*2C
$GPRMC,,V,,,,,,,,,,N*53
$GPGSA,A,1,,,,,,,,,,,,,,,*1E
$GNGSA,A,1,,,,,,,,,,,,,,,*00
$GPGSV,3,1,09,14,05,206,14,15,59,056,19,18,45,293,17,21,38,333,15*79
$GPGSV,3,2,09,22,16,261,20,24,17,135,17,25,08,191,16,26,22,042,18*7A
$GPGSV,3,3,09,29,71,188,22*4C
$GLGSV,2,1,08,,,,19,66,13,026,12,82,55,343,21,81,62,132,18*5A
$GLGSV,2,2,08,67,51,340,12,68,37,257,12,88,09,147,,83,,,*55
$GPGGA,233823.8,,,,,0,,,,,,,,*7B
$GNGNS,233823.8,,,,,NN,,,,,,*4E
$GPVTG,,T,,M,,N,,K,N*2C
$GPRMC,,V,,,,,,,,,,N*53
$GPGSA,A,1,,,,,,,,,,,,,,,*1E
$GNGSA,A,1,,,,,,,,,,,,,,,*00
$GPGSV,3,1,09,14,05,206,14,15,59,056,19,18,45,293,17,21,38,333,15*79
$GPGSV,3,2,09,22,16,261,20,24,17,135,17,25,08,191,16,26,22,042,18*7A
$GPGSV,3,3,09,29,71,188,22*4C
$GLGSV,2,1,08,,,,19,66,13,026,12,82,55,343,21,81,62,132,18*5A
$GLGSV,2,2,08,67,51,340,13,68,37,257,12,88,09,147,,83,,,*54
$GPGGA,233824.8,,,,,0,,,,,,,,*7C
$GNGNS,233824.8,,,,,NN,,,,,,*49
$GPVTG,,T,,M,,N,,K,N*2C
$GPRMC,,V,,,,,,,,,,N*53
$GPGSA,A,1,,,,,,,,,,,,,,,*1E
$GNGSA,A,1,,,,,,,,,,,,,,,*00
$GPGSV,3,1,09,14,05,206,14,15,59,056,19,18,45,293,17,21,38,333,16*7A
$GPGSV,3,2,09,22,16,261,20,24,17,135,17,25,08,191,16,26,22,042,18*7A
$GPGSV,3,3,09,29,71,188,22*4C
$GLGSV,2,1,08,,,,19,66,13,026,12,82,55,343,21,81,62,132,18*5A
$GLGSV,2,2,08,67,51,340,16,68,37,257,12,88,09,147,,83,,,*51
$GPGGA,233825.8,,,,,0,,,,,,,,*7D
$GNGNS,233825.8,,,,,NN,,,,,,*48
$GPVTG,,T,,M,,N,,K,N*2C
$GPRMC,,V,,,,,,,,,,N*53
$GPGSA,A,1,,,,,,,,,,,,,,,*1E
$GNGSA,A,1,,,,,,,,,,,,,,,*00
$GPGSV,3,1,09,14,05,206,14,15,59,056,19,18,45,293,14,21,38,333,16*79
$GPGSV,3,2,09,22,16,261,20,24,17,135,17,25,08,191,16,26,22,042,18*7A
$GPGSV,3,3,09,29,71,188,22*4C
$GLGSV,2,1,08,,,,19,66,13,026,12,82,55,343,15,81,62,132,18*5D
$GLGSV,2,2,08,67,51,340,17,68,37,257,12,88,09,147,,83,,,*50
$GPGGA,233826.8,,,,,0,,,,,,,,*7E
$GNGNS,233826.8,,,,,NN,,,,,,*4B
$GPVTG,,T,,M,,N,,K,N*2C
$GPRMC,,V,,,,,,,,,,N*53
$GPGSA,A,1,,,,,,,,,,,,,,,*1E
$GNGSA,A,1,,,,,,,,,,,,,,,*00
$GPGSV,3,1,09,14,05,206,14,15,59,056,19,18,45,293,14,21,38,333,15*7A
$GPGSV,3,2,09,22,16,261,20,24,17,135,17,25,08,191,16,26,22,042,18*7A
$GPGSV,3,3,09,29,71,188,22*4C
$GLGSV,2,1,08,,,,19,66,13,026,12,82,55,343,15,81,62,132,18*5D
$GLGSV,2,2,08,67,51,340,17,68,37,257,12,88,09,147,,83,,,*50
$GPGGA,233827.8,,,,,0,,,,,,,,*7F
$GNGNS,233827.8,,,,,NN,,,,,,*4A
$GPVTG,,T,,M,,N,,K,N*2C
$GPRMC,,V,,,,,,,,,,N*53
$GPGSA,A,1,,,,,,,,,,,,,,,*1E
$GNGSA,A,1,,,,,,,,,,,,,,,*00
$GPGSV,3,1,09,14,05,206,14,15,59,056,19,18,45,293,15,21,38,333,15*7B
$GPGSV,3,2,09,22,16,261,12,24,17,135,8,25,08,191,16,26,22,042,18*45
$GPGSV,3,3,09,29,71,188,22*4C
$GLGSV,2,1,08,,,,19,66,13,026,12,82,55,343,15,81,62,132,18*5D
$GLGSV,2,2,08,67,51,340,17,68,37,257,12,88,09,147,,83,,,*50
$GPGGA,233828.8,,,,,0,,,,,,,,*70
$GNGNS,233828.8,,,,,NN,,,,,,*45
$GPVTG,,T,,M,,N,,K,N*2C
$GPRMC,,V,,,,,,,,,,N*53
$GPGSA,A,1,,,,,,,,,,,,,,,*1E
$GNGSA,A,1,,,,,,,,,,,,,,,*00
$GPGSV,3,1,09,14,05,206,14,15,59,056,19,18,45,293,15,21,38,333,15*7B
$GPGSV,3,2,09,22,16,261,12,24,17,135,8,25,08,191,16,26,22,042,18*45
$GPGSV,3,3,09,29,71,188,22*4C
$GLGSV,2,1,07,,,,19,82,55,343,15,81,62,132,18,67,51,340,17*53
$GLGSV,2,2,07,68,37,257,12,88,09,147,,83,,,*6B
$GPGGA,233829.8,,,,,0,,,,,,,,*71
$GNGNS,233829.8,,,,,NN,,,,,,*44
$GPVTG,,T,,M,,N,,K,N*2C
$GPRMC,,V,,,,,,,,,,N*53
$GPGSA,A,1,,,,,,,,,,,,,,,*1E
$GNGSA,A,1,,,,,,,,,,,,,,,*00
$GPGSV,3,1,09,15,59,056,19,18,45,293,15,21,38,333,15,22,16,261,12*7B
$GPGSV,3,2,09,24,17,135,8,26,22,042,18,29,71,188,22,14,05,206,*4D
$GPGSV,3,3,09,25,08,191,*46
$GLGSV,2,1,08,,,,19,82,55,343,15,81,62,132,18,67,51,340,17*5C
$GLGSV,2,2,08,68,37,257,12,66,13,026,,88,09,147,,83,,,*52
$GPGGA,233830.8,,,,,0,,,,,,,,*79
$GNGNS,233830.8,,,,,NN,,,,,,*4C
$GPVTG,,T,,M,,N,,K,N*2C
$GPRMC,,V,,,,,,,,,,N*53
$GPGSA,A,1,,,,,,,,,,,,,,,*1E
$GNGSA,A,1,,,,,,,,,,,,,,,*00
$GPGSV,3,1,09,15,59,056,19,18,45,293,15,21,38,333,15,22,16,261,15*7C
$GPGSV,3,2,09,24,17,135,8,26,22,042,18,29,71,188,22,14,05,206,*4D
$GPGSV,3,3,09,25,08,191,*46
$GLGSV,2,1,08,,,,19,82,55,343,15,81,62,132,18,67,51,340,17*5C
$GLGSV,2,2,08,68,37,257,12,66,13,026,,88,09,147,,83,,,*52
$GPGGA,233831.8,,,,,0,,,,,,,,*78
$GNGNS,233831.8,,,,,NN,,,,,,*4D
$GPVTG,,T,,M,,N,,K,N*2C
$GPRMC,,V,,,,,,,,,,N*53
$GPGSA,A,1,,,,,,,,,,,,,,,*1E
$GNGSA,A,1,,,,,,,,,,,,,,,*00
$GPGSV,3,1,09,15,59,056,19,18,45,293,15,21,38,333,13,22,16,261,15*7A
$GPGSV,3,2,09,24,17,135,8,26,22,042,18,29,71,188,22,14,05,206,*4D
$GPGSV,3,3,09,25,08,191,*46
$GLGSV,2,1,08,,,,19,82,55,343,15,81,62,132,18,67,51,340,17*5C
$GLGSV,2,2,08,68,37,257,12,66,13,026,,88,09,147,,83,,,*52
$GPGGA,233832.8,,,,,0,,,,,,,,*7B
$GNGNS,233832.8,,,,,NN,,,,,,*4E
$GPVTG,,T,,M,,N,,K,N*2C
$GPRMC,,V,,,,,,,,,,N*53
$GPGSA,A,1,,,,,,,,,,,,,,,*1E
$GNGSA,A,1,,,,,,,,,,,,,,,*00
$GPGSV,3,1,09,15,59,056,19,18,45,293,15,21,38,333,13,22,16,261,15*7A
$GPGSV,3,2,09,24,17,135,8,26,22,042,18,29,71,188,22,14,05,206,*4D
$GPGSV,3,3,09,25,08,191,*46
$GLGSV,2,1,08,,,,19,82,55,343,15,81,62,132,18,67,51,340,17*5C
$GLGSV,2,2,08,68,37,257,12,66,13,026,,88,09,147,,83,,,*52
$GPGGA,233833.8,,,,,0,,,,,,,,*7A
$GNGNS,233833.8,,,,,NN,,,,,,*4F
$GPVTG,,T,,M,,N,,K,N*2C
$GPRMC,,V,,,,,,,,,,N*53
$GPGSA,A,1,,,,,,,,,,,,,,,*1E
$GNGSA,A,1,,,,,,,,,,,,,,,*00
$GPGSV,3,1,09,15,59,056,19,18,45,293,15,21,38,333,13,22,16,261,15*7A
$GPGSV,3,2,09,24,17,135,8,26,22,042,18,29,71,188,22,14,05,206,*4D
$GPGSV,3,3,09,25,08,191,*46
$GLGSV,2,1,08,,,,19,82,55,343,15,81,62,132,18,67,51,340,17*5C
$GLGSV,2,2,08,68,37,257,8,66,13,026,,88,09,147,,83,,,*69
$GPGGA,233834.8,,,,,0,,,,,,,,*7D
$GNGNS,233834.8,,,,,NN,,,,,,*48
$GPVTG,,T,,M,,N,,K,N*2C
$GPRMC,,V,,,,,,,,,,N*53
$GPGSA,A,1,,,,,,,,,,,,,,,*1E
$GNGSA,A,1,,,,,,,,,,,,,,,*00
$GPGSV,3,1,09,15,59,056,19,18,45,293,15,21,38,333,14,22,16,261,15*7D
$GPGSV,3,2,09,24,17,135,8,26,22,042,18,29,71,188,22,14,05,206,*4D
$GPGSV,3,3,09,25,08,191,*46
$GLGSV,2,1,08,,,,19,82,55,343,15,81,62,132,18,67,51,340,17*5C
$GLGSV,2,2,08,68,37,257,8,66,13,026,,88,09,147,,83,,,*69
$GPGGA,233835.8,,,,,0,,,,,,,,*7C
$GNGNS,233835.8,,,,,NN,,,,,,*49
$GPVTG,,T,,M,,N,,K,N*2C
$GPRMC,,V,,,,,,,,,,N*53
$GPGSA,A,1,,,,,,,,,,,,,,,*1E
$GNGSA,A,1,,,,,,,,,,,,,,,*00
$GPGSV,3,1,09,15,59,056,19,18,45,293,15,21,38,333,14,22,16,261,15*7D
$GPGSV,3,2,09,24,17,135,8,26,22,042,18,29,71,188,22,14,05,206,*4D
$GPGSV,3,3,09,25,08,191,*46
$GLGSV,2,1,08,,,,19,82,55,343,15,81,62,132,18,67,51,340,17*5C
$GLGSV,2,2,08,68,37,257,8,66,13,026,,88,09,147,,83,,,*69
$GPGGA,233836.8,,,,,0,,,,,,,,*7F
$GNGNS,233836.8,,,,,NN,,,,,,*4A
$GPVTG,,T,,M,,N,,K,N*2C
$GPRMC,,V,,,,,,,,,,N*53
$GPGSA,A,1,,,,,,,,,,,,,,,*1E
$GNGSA,A,1,,,,,,,,,,,,,,,*00
$GPGSV,3,1,09,15,59,056,19,18,45,293,15,21,38,333,14,22,16,261,15*7D
$GPGSV,3,2,09,24,17,135,8,26,22,042,18,29,71,188,22,14,05,206,*4D
$GPGSV,3,3,09,25,08,191,*46
$GLGSV,2,1,08,,,,19,82,55,343,15,81,62,132,18,67,51,340,17*5C
$GLGSV,2,2,08,68,37,257,8,66,13,026,,88,09,147,,83,,,*69
$GPGGA,233837.8,,,,,0,,,,,,,,*7E
$GNGNS,233837.8,,,,,NN,,,,,,*4B
$GPVTG,,T,,M,,N,,K,N*2C
$GPRMC,,V,,,,,,,,,,N*53
$GPGSA,A,1,,,,,,,,,,,,,,,*1E
$GNGSA,A,1,,,,,,,,,,,,,,,*00
$GPGSV,3,1,09,15,59,056,19,18,45,293,15,21,38,333,15,22,16,261,15*7C
$GPGSV,3,2,09,24,17,135,8,26,22,042,18,29,71,188,22,14,05,206,*4D
$GPGSV,3,3,09,25,08,191,*46
$GLGSV,2,1,08,,,,19,82,55,343,15,81,62,132,18,67,51,340,17*5C
$GLGSV,2,2,08,68,37,257,8,66,13,026,,88,09,147,,83,,,*69
$GPGGA,233838.8,,,,,0,,,,,,,,*71
$GNGNS,233838.8,,,,,NN,,,,,,*44
$GPVTG,,T,,M,,N,,K,N*2C
$GPRMC,,V,,,,,,,,,,N*53
$GPGSA,A,1,,,,,,,,,,,,,,,*1E
$GNGSA,A,1,,,,,,,,,,,,,,,*00
$GPGSV,3,1,09,15,59,056,19,18,45,293,15,21,38,333,15,22,16,261,15*7C
$GPGSV,3,2,09,24,17,135,8,26,22,042,18,29,71,188,22,14,05,206,*4D
$GPGSV,3,3,09,25,08,191,*46
$GLGSV,2,1,08,,,,19,82,55,343,15,81,62,132,18,67,51,340,17*5C
$GLGSV,2,2,08,68,37,257,12,66,13,026,,88,09,147,,83,,,*52
$GPGGA,233839.8,,,,,0,,,,,,,,*70
$GNGNS,233839.8,,,,,NN,,,,,,*45
$GPVTG,,T,,M,,N,,K,N*2C
$GPRMC,,V,,,,,,,,,,N*53
$GPGSA,A,1,,,,,,,,,,,,,,,*1E
$GNGSA,A,1,,,,,,,,,,,,,,,*00
$GPGSV,2,1,07,15,59,056,19,18,45,293,9,21,38,333,15,22,16,261,15*4E
$GPGSV,2,2,07,24,17,135,8,14,05,206,,25,08,191,*73
$GLGSV,2,1,08,,,,19,82,55,343,15,81,62,132,18,67,51,340,17*5C
$GLGSV,2,2,08,68,37,257,12,66,13,026,,88,09,147,,83,,,*52
$GPGGA,233840.8,,,,,0,,,,,,,,*7E
$GNGNS,233840.8,,,,,NN,,,,,,*4B
$GPVTG,,T,,M,,N,,K,N*2C
$GPRMC,,V,,,,,,,,,,N*53
$GPGSA,A,1,,,,,,,,,,,,,,,*1E
$GNGSA,A,1,,,,,,,,,,,,,,,*00
$GPGSV,2,1,08,18,45,293,9,21,38,333,15,22,16,261,15,24,17,135,8*7D
$GPGSV,2,2,08,14,05,206,,25,08,191,,26,22,042,,29,71,188,*7D
$GLGSV,2,1,07,,,,19,82,55,343,15,67,51,340,17,68,37,257,12*5E
$GLGSV,2,2,07,66,13,026,,88,09,147,,83,,,*64
$GPGGA,233841.8,,,,,0,,,,,,,,*7F
$GNGNS,233841.8,,,,,NN,,,,,,*4A
$GPVTG,,T,,M,,N,,K,N*2C
$GPRMC,,V,,,,,,,,,,N*53
$GPGSA,A,1,,,,,,,,,,,,,,,*1E
$GNGSA,A,1,,,,,,,,,,,,,,,*00
$GPGSV,3,1,09,18,45,293,15,21,38,333,15,22,16,261,15,24,17,135,8*40
$GPGSV,3,2,09,14,05,206,,15,59,056,,25,08,191,,26,22,042,*7A
$GPGSV,3,3,09,29,71,188,*4C
$GLGSV,2,1,08,,,,19,82,55,343,15,67,51,340,17,68,37,257,12*51
$GLGSV,2,2,08,66,13,026,,88,09,147,,83,,,,81,62,132,*56
$GPGGA,233842.8,,,,,0,,,,,,,,*7C
$GNGNS,233842.8,,,,,NN,,,,,,*49
$GPVTG,,T,,M,,N,,K,N*2C
$GPRMC,,V,,,,,,,,,,N*53
$GPGSA,A,1,,,,,,,,,,,,,,,*1E
$GNGSA,A,1,,,,,,,,,,,,,,,*00
$GPGSV,3,1,09,18,45,293,15,21,38,333,16,22,16,261,15,24,17,135,8*43
$GPGSV,3,2,09,14,05,206,,15,59,056,,25,08,191,,26,22,042,*7A
$GPGSV,3,3,09,29,71,188,*4C
$GLGSV,2,1,08,,,,19,82,55,343,15,67,51,340,17,68,37,257,12*51
$GLGSV,2,2,08,66,13,026,,88,09,147,,83,,,,81,62,132,*56
$GPGGA,233843.8,,,,,0,,,,,,,,*7D
$GNGNS,233843.8,,,,,NN,,,,,,*48
$GPVTG,,T,,M,,N,,K,N*2C
$GPRMC,,V,,,,,,,,,,N*53
$GPGSA,A,1,,,,,,,,,,,,,,,*1E
$GNGSA,A,1,,,,,,,,,,,,,,,*00
$GPGSV,3,1,09,18,45,293,15,21,38,333,16,22,16,261,15,24,17,135,8*43
$GPGSV,3,2,09,14,05,206,,15,59,056,,25,08,191,,26,22,042,*7A
$GPGSV,3,3,09,29,71,188,*4C
$GLGSV,2,1,08,,,,19,82,55,343,15,67,51,340,17,68,37,257,12*51
$GLGSV,2,2,08,66,13,026,,88,09,147,,83,,,,81,62,132,*56
$GPGGA,233844.8,,,,,0,,,,,,,,*7A
$GNGNS,233844.8,,,,,NN,,,,,,*4F
$GPVTG,,T,,M,,N,,K,N*2C
$GPRMC,,V,,,,,,,,,,N*53
$GPGSA,A,1,,,,,,,,,,,,,,,*1E
$GNGSA,A,1,,,,,,,,,,,,,,,*00
$GPGSV,3,1,09,18,45,293,15,21,38,333,16,22,16,261,15,24,17,135,8*43
$GPGSV,3,2,09,14,05,206,,15,59,056,,25,08,191,,26,22,042,*7A
$GPGSV,3,3,09,29,71,188,*4C
$GLGSV,2,1,08,,,,19,82,55,343,15,67,51,340,17,68,37,257,12*51
$GLGSV,2,2,08,66,13,026,,88,09,147,,83,,,,81,62,132,*56
$GPGGA,233845.8,,,,,0,,,,,,,,*7B
$GNGNS,233845.8,,,,,NN,,,,,,*4E
$GPVTG,,T,,M,,N,,K,N*2C
$GPRMC,,V,,,,,,,,,,N*53
$GPGSA,A,1,,,,,,,,,,,,,,,*1E
$GNGSA,A,1,,,,,,,,,,,,,,,*00
$GPGSV,3,1,09,18,45,293,14,21,38,333,16,22,16,261,15,24,17,135,8*42
$GPGSV,3,2,09,14,05,206,,15,59,056,,25,08,191,,26,22,042,*7A
$GPGSV,3,3,09,29,71,188,*4C
$GLGSV,2,1,07,,,,19,67,51,340,17,68,37,257,12,66,13,026,*52
$GLGSV,2,2,07,88,09,147,,83,,,,81,62,132,*6F
$GPGGA,233846.8,,,,,0,,,,,,,,*78
$GNGNS,233846.8,,,,,NN,,,,,,*4D
$GPVTG,,T,,M,,N,,K,N*2C
$GPRMC,,V,,,,,,,,,,N*53
$GPGSA,A,1,,,,,,,,,,,,,,,*1E
$GNGSA,A,1,,,,,,,,,,,,,,,*00
$GPGSV,3,1,09,18,45,293,14,21,38,333,16,22,16,261,13,24,17,135,8*44
$GPGSV,3,2,09,14,05,206,,15,59,056,,25,08,191,,26,22,042,*7A
$GPGSV,3,3,09,29,71,188,*4C
$GLGSV,2,1,08,,,,19,67,51,340,17,68,37,257,10,66,13,026,*5F
$GLGSV,2,2,08,82,55,343,,88,09,147,,83,,,,81,62,132,*5E
$GPGGA,233847.8,,,,,0,,,,,,,,*79
$GNGNS,233847.8,,,,,NN,,,,,,*4C
$GPVTG,,T,,M,,N,,K,N*2C
$GPRMC,,V,,,,,,,,,,N*53
$GPGSA,A,1,,,,,,,,,,,,,,,*1E
$GNGSA,A,1,,,,,,,,,,,,,,,*00
$GPGSV,3,1,09,18,45,293,16,21,38,333,16,22,16,261,13,24,17,135,8*46
$GPGSV,3,2,09,14,05,206,,15,59,056,,25,08,191,,26,22,042,*7A
$GPGSV,3,3,09,29,71,188,*4C
$GLGSV,2,1,08,,,,19,67,51,340,17,68,37,257,10,66,13,026,*5F
$GLGSV,2,2,08,82,55,343,,88,09,147,,83,,,,81,62,132,*5E
$GPGGA,233848.8,,,,,0,,,,,,,,*76
$GNGNS,233848.8,,,,,NN,,,,,,*43
$GPVTG,,T,,M,,N,,K,N*2C
$GPRMC,,V,,,,,,,,,,N*53
$GPGSA,A,1,,,,,,,,,,,,,,,*1E
$GNGSA,A,1,,,,,,,,,,,,,,,*00
$GPGSV,3,1,09,18,45,293,17,21,38,333,13,22,16,261,13,24,17,135,8*42
$GPGSV,3,2,09,14,05,206,,15,59,056,,25,08,191,,26,22,042,*7A
$GPGSV,3,3,09,29,71,188,*4C
$GLGSV,2,1,08,,,,19,67,51,340,17,68,37,257,10,66,13,026,*5F
$GLGSV,2,2,08,82,55,343,,88,09,147,,83,,,,81,62,132,*5E
$GPGGA,233849.8,,,,,0,,,,,,,,*77
$GNGNS,233849.8,,,,,NN,,,,,,*42
$GPVTG,,T,,M,,N,,K,N*2C
$GPRMC,,V,,,,,,,,,,N*53
$GPGSA,A,1,,,,,,,,,,,,,,,*1E
$GNGSA,A,1,,,,,,,,,,,,,,,*00
$GPGSV,3,1,09,18,45,293,16,21,38,333,13,22,16,261,13,24,17,135,8*43
$GPGSV,3,2,09,14,05,206,,15,59,056,,25,08,191,,26,22,042,*7A
$GPGSV,3,3,09,29,71,188,*4C
$GLGSV,2,1,08,,,,19,67,51,340,17,68,37,257,10,66,13,026,*5F
$GLGSV,2,2,08,82,55,343,,88,09,147,,83,,,,81,62,132,*5E
$GPGGA,233850.8,,,,,0,,,,,,,,*7F
$GNGNS,233850.8,,,,,NN,,,,,,*4A
$GPVTG,,T,,M,,N,,K,N*2C
$GPRMC,,V,,,,,,,,,,N*53
$GPGSA,A,1,,,,,,,,,,,,,,,*1E
$GNGSA,A,1,,,,,,,,,,,,,,,*00
$GPGSV,3,1,09,18,45,293,16,21,38,333,13,22,16,261,13,24,17,135,8*43
$GPGSV,3,2,09,14,05,206,,15,59,056,,25,08,191,,26,22,042,*7A
$GPGSV,3,3,09,29,71,188,*4C
$GLGSV,2,1,08,,,,19,68,37,257,10,66,13,026,,82,55,343,*55
$GLGSV,2,2,08,88,09,147,,83,,,,81,62,132,,,51,340,*53
$GPGGA,233851.8,,,,,0,,,,,,,,*7E
$GNGNS,233851.8,,,,,NN,,,,,,*4B
$GPVTG,,T,,M,,N,,K,N*2C
$GPRMC,,V,,,,,,,,,,N*53
$GPGSA,A,1,,,,,,,,,,,,,,,*1E
$GNGSA,A,1,,,,,,,,,,,,,,,*00
$GPGSV,3,1,09,18,45,293,15,21,38,333,13,22,16,261,13,24,17,135,8*40
$GPGSV,3,2,09,14,05,206,,15,59,056,,25,08,191,,26,22,042,*7A
$GPGSV,3,3,09,29,71,188,*4C
$GLGSV,2,1,08,,,,19,68,37,257,10,66,13,026,,82,55,343,*55
$GLGSV,2,2,08,88,09,147,,83,,,,81,62,132,,67,51,340,*52
$GPGGA,233852.8,,,,,0,,,,,,,,*7D
$GNGNS,233852.8,,,,,NN,,,,,,*48
$GPVTG,,T,,M,,N,,K,N*2C
$GPRMC,,V,,,,,,,,,,N*53
$GPGSA,A,1,,,,,,,,,,,,,,,*1E
$GNGSA,A,1,,,,,,,,,,,,,,,*00
$GPGSV,3,1,09,18,45,293,15,21,38,333,13,22,16,261,14,24,17,135,8*47
$GPGSV,3,2,09,14,05,206,,15,59,056,,25,08,191,,26,22,042,*7A
$GPGSV,3,3,09,29,71,188,*4C
$GLGSV,2,1,08,,,,19,68,37,257,10,66,13,026,,82,55,343,*55
$GLGSV,2,2,08,88,09,147,,83,,,,81,62,132,,67,51,340,*52
$GPGGA,233853.8,,,,,0,,,,,,,,*7C
$GNGNS,233853.8,,,,,NN,,,,,,*49
$GPVTG,,T,,M,,N,,K,N*2C
$GPRMC,,V,,,,,,,,,,N*53
$GPGSA,A,1,,,,,,,,,,,,,,,*1E
$GNGSA,A,1,,,,,,,,,,,,,,,*00
$GPGSV,3,1,09,18,45,293,15,21,38,333,13,22,16,261,14,24,17,135,8*47
$GPGSV,3,2,09,14,05,206,,15,59,056,,25,08,191,,26,22,042,*7A
$GPGSV,3,3,09,29,71,188,*4C
$GLGSV,2,1,08,,,,19,68,37,257,10,66,13,026,,82,55,343,*55
$GLGSV,2,2,08,88,09,147,,83,,,,81,62,132,,67,51,340,*52
$GPGGA,233854.8,,,,,0,,,,,,,,*7B
$GNGNS,233854.8,,,,,NN,,,,,,*4E
$GPVTG,,T,,M,,N,,K,N*2C
$GPRMC,,V,,,,,,,,,,N*53
$GPGSA,A,1,,,,,,,,,,,,,,,*1E
$GNGSA,A,1,,,,,,,,,,,,,,,*00
$GPGSV,3,1,09,18,45,293,15,21,38,333,13,22,16,261,14,24,17,135,8*47
$GPGSV,3,2,09,14,05,206,,15,59,056,,25,08,191,,26,22,042,*7A
$GPGSV,3,3,09,29,71,188,*4C
$GLGSV,2,1,08,,,,19,68,37,257,10,66,13,026,,82,55,343,*55
$GLGSV,2,2,08,88,09,147,,83,,,,81,62,132,,67,51,340,*52
$GPGGA,233855.8,,,,,0,,,,,,,,*7A
$GNGNS,233855.8,,,,,NN,,,,,,*4F
$GPVTG,,T,,M,,N,,K,N*2C
$GPRMC,,V,,,,,,,,,,N*53
$GPGSA,A,1,,,,,,,,,,,,,,,*1E
$GNGSA,A,1,,,,,,,,,,,,,,,*00
$GPGSV,3,1,09,18,45,293,14,21,38,333,13,22,16,261,14,24,17,135,8*46
$GPGSV,3,2,09,14,05,206,,15,59,056,,25,08,191,,26,22,042,*7A
$GPGSV,3,3,09,29,71,188,*4C
$GLGSV,2,1,08,,,,19,68,37,257,10,66,13,026,,82,55,343,*55
$GLGSV,2,2,08,88,09,147,,83,,,,81,62,132,,67,51,340,*52
$GPGGA,233856.8,,,,,0,,,,,,,,*79
$GNGNS,233856.8,,,,,NN,,,,,,*4C
$GPVTG,,T,,M,,N,,K,N*2C
$GPRMC,,V,,,,,,,,,,N*53
$GPGSA,A,1,,,,,,,,,,,,,,,*1E
$GNGSA,A,1,,,,,,,,,,,,,,,*00
$GPGSV,3,1,09,18,45,293,14,21,38,333,13,22,16,261,14,24,17,135,8*46
$GPGSV,3,2,09,14,05,206,,15,59,056,,25,08,191,,26,22,042,*7A
$GPGSV,3,3,09,29,71,188,*4C
$GLGSV,2,1,08,,,,19,68,37,257,10,66,13,026,,82,55,343,*55
$GLGSV,2,2,08,88,09,147,,83,,,,81,62,132,,67,51,340,*52
$GPGGA,233857.8,,,,,0,,,,,,,,*78
$GNGNS,233857.8,,,,,NN,,,,,,*4D
$GPVTG,,T,,M,,N,,K,N*2C
$GPRMC,,V,,,,,,,,,,N*53
$GPGSA,A,1,,,,,,,,,,,,,,,*1E
$GNGSA,A,1,,,,,,,,,,,,,,,*00
$GPGSV,3,1,09,18,45,293,14,21,38,333,12,22,16,261,14,24,17,135,8*47
$GPGSV,3,2,09,14,05,206,,15,59,056,,25,08,191,,26,22,042,*7A
$GPGSV,3,3,09,29,71,188,*4C
$GLGSV,2,1,08,,,,19,68,37,257,10,66,13,026,,82,55,343,*55
$GLGSV,2,2,08,88,09,147,,83,,,,81,62,132,,67,51,340,*52
$GPGGA,233858.8,,,,,0,,,,,,,,*77
$GNGNS,233858.8,,,,,NN,,,,,,*42
$GPVTG,,T,,M,,N,,K,N*2C
$GPRMC,,V,,,,,,,,,,N*53
$GPGSA,A,1,,,,,,,,,,,,,,,*1E
$GNGSA,A,1,,,,,,,,,,,,,,,*00
$GPGSV,3,1,09,18,45,293,14,21,38,333,12,22,16,261,14,24,17,135,8*47
$GPGSV,3,2,09,14,05,206,,15,59,056,,25,08,191,,26,22,042,*7A
$GPGSV,3,3,09,29,71,188,*4C
$GLGSV,2,1,08,,,,19,68,37,257,10,66,13,026,,82,55,343,*55
$GLGSV,2,2,08,88,09,147,,83,,,,81,62,132,,67,51,340,*52
$GPGGA,233859.8,,,,,0,,,,,,,,*76
$GNGNS,233859.8,,,,,NN,,,,,,*43
$GPVTG,,T,,M,,N,,K,N*2C
$GPRMC,,V,,,,,,,,,,N*53
$GPGSA,A,1,,,,,,,,,,,,,,,*1E
$GNGSA,A,1,,,,,,,,,,,,,,,*00
$GPGSV,3,1,09,18,45,293,14,21,38,333,12,22,16,261,14,24,17,135,8*47
$GPGSV,3,2,09,14,05,206,,15,59,056,,25,08,191,,26,22,042,*7A
$GPGSV,3,3,09,29,71,188,*4C
$GLGSV,2,1,08,,,,19,68,37,257,10,66,13,026,,82,55,343,*55
$GLGSV,2,2,08,88,09,147,,83,,,,81,62,132,,67,51,340,*52
$GPGGA,233900.8,,,,,0,,,,,,,,*7B
$GNGNS,233900.8,,,,,NN,,,,,,*4E
$GPVTG,,T,,M,,N,,K,N*2C
$GPRMC,,V,,,,,,,,,,N*53
$GPGSA,A,1,,,,,,,,,,,,,,,*1E
$GNGSA,A,1,,,,,,,,,,,,,,,*00
$GPGSV,3,1,09,18,45,293,13,21,38,333,12,22,16,261,14,24,17,135,8*40
$GPGSV,3,2,09,14,05,206,,15,59,056,,25,08,191,,26,22,042,*7A
$GPGSV,3,3,09,29,71,188,*4C
$GLGSV,2,1,08,,,,19,68,37,257,10,66,13,026,,82,55,343,*55
$GLGSV,2,2,08,88,09,147,,83,,,,81,62,132,,67,51,340,*52
$GPGGA,233901.8,,,,,0,,,,,,,,*7A
$GNGNS,233901.8,,,,,NN,,,,,,*4F
$GPVTG,,T,,M,,N,,K,N*2C
$GPRMC,,V,,,,,,,,,,N*53
$GPGSA,A,1,,,,,,,,,,,,,,,*1E
$GNGSA,A,1,,,,,,,,,,,,,,,*00
$GPGSV,3,1,09,18,45,293,13,21,38,333,12,22,16,261,14,24,17,135,8*40
$GPGSV,3,2,09,14,05,206,,15,59,056,,25,08,191,,26,22,042,*7A
$GPGSV,3,3,09,29,71,188,*4C
$GLGSV,2,1,08,,,,19,68,37,257,10,66,13,026,,82,55,343,*55
$GLGSV,2,2,08,88,09,147,,83,,,,81,62,132,,67,51,340,*52
$GPGGA,233902.8,,,,,0,,,,,,,,*79
$GNGNS,233902.8,,,,,NN,,,,,,*4C
$GPVTG,,T,,M,,N,,K,N*2C
$GPRMC,,V,,,,,,,,,,N*53
$GPGSA,A,1,,,,,,,,,,,,,,,*1E
$GNGSA,A,1,,,,,,,,,,,,,,,*00
$GPGSV,3,1,09,18,45,293,13,21,38,333,12,22,16,261,14,24,17,135,8*40
$GPGSV,3,2,09,14,05,206,,15,59,056,,25,08,191,,26,22,042,*7A
$GPGSV,3,3,09,29,71,188,*4C
$GLGSV,2,1,08,,,,19,68,37,257,10,66,13,026,,82,55,343,*55
$GLGSV,2,2,08,88,09,147,,83,,,,81,62,132,,67,51,340,*52
$GPGGA,233903.8,,,,,0,,,,,,,,*78
$GNGNS,233903.8,,,,,NN,,,,,,*4D
$GPVTG,,T,,M,,N,,K,N*2C
$GPRMC,,V,,,,,,,,,,N*53
$GPGSA,A,1,,,,,,,,,,,,,,,*1E
$GNGSA,A,1,,,,,,,,,,,,,,,*00
$GPGSV,3,1,09,18,45,293,13,21,38,333,12,22,16,261,14,24,17,135,7*4F
$GPGSV,3,2,09,14,05,206,,15,59,056,,25,08,191,,26,22,042,*7A
$GPGSV,3,3,09,29,71,188,*4C
$GLGSV,2,1,08,,,,19,68,37,257,10,66,13,026,,82,55,343,*55
$GLGSV,2,2,08,88,09,147,,83,,,,81,62,132,,67,51,340,*52
$GPGGA,233904.8,,,,,0,,,,,,,,*7F
$GNGNS,233904.8,,,,,NN,,,,,,*4A
$GPVTG,,T,,M,,N,,K,N*2C
$GPRMC,,V,,,,,,,,,,N*53
$GPGSA,A,1,,,,,,,,,,,,,,,*1E
$GNGSA,A,1,,,,,,,,,,,,,,,*00
$GPGSV,3,1,09,18,45,293,15,21,38,333,12,22,16,261,14,24,17,135,7*49
$GPGSV,3,2,09,14,05,206,,15,59,056,,25,08,191,,26,22,042,*7A
$GPGSV,3,3,09,29,71,188,*4C
$GLGSV,2,1,08,,,,19,68,37,257,10,66,13,026,,82,55,343,*55
$GLGSV,2,2,08,88,09,147,,83,,,,81,62,132,,67,51,340,*52
$GPGGA,233905.8,,,,,0,,,,,,,,*7E
$GNGNS,233905.8,,,,,NN,,,,,,*4B
$GPVTG,,T,,M,,N,,K,N*2C
$GPRMC,,V,,,,,,,,,,N*53
$GPGSA,A,1,,,,,,,,,,,,,,,*1E
$GNGSA,A,1,,,,,,,,,,,,,,,*00
$GPGSV,3,1,09,18,45,293,27,21,38,333,13,22,16,261,20,24,17,135,7*4E
$GPGSV,3,2,09,29,71,188,23,14,05,206,,15,59,056,,25,08,191,*75
$GPGSV,3,3,09,26,22,042,*42
$GLGSV,2,1,08,,,,19,82,55,343,13,68,37,257,14,66,13,026,*53
$GLGSV,2,2,08,88,09,147,,83,,,,81,62,132,,67,51,340,*52
$GPGGA,233906.8,,,,,0,,,,,,,,*7D
$GNGNS,233906.8,,,,,NN,,,,,,*48
$GPVTG,,T,,M,,N,,K,N*2C
$GPRMC,,V,,,,,,,,,,N*53
$GPGSA,A,1,,,,,,,,,,,,,,,*1E
$GNGSA,A,1,,,,,,,,,,,,,,,*00
$GPGSV,3,1,09,18,45,293,26,21,38,333,23,22,16,261,20,24,17,135,16*7C
$GPGSV,3,2,09,29,71,188,21,14,05,206,,15,59,056,,25,08,191,*77
$GPGSV,3,3,09,26,22,042,*42
$GLGSV,2,1,08,,,,19,82,55,343,17,81,62,132,12,67,51,340,17*54
$GLGSV,2,2,08,68,37,257,25,66,13,026,,88,09,147,,83,,,*56
$GPGGA,233907.8,1928.583831,N,09907.967573,W,1,05,1.1,2238.2,M,0.0,M,,*4E
$GNGNS,233907.8,1928.583831,N,09907.967573,W,AA,09,1.1,2238.2,0.0,,*76
$GPVTG,212.1,T,212.1,M,26.2,N,48.6,K,A*2F
$GPRMC,233907.8,A,1928.583831,N,09907.967573,W,26.2,212.1,260914,0.0,E,A*25
$GPGSA,A,2,18,21,22,24,29,,,,,,,,1.5,1.1,0.9*39
$GNGSA,A,2,18,21,22,24,29,,,,,,,,1.5,1.1,0.9*27
$GNGSA,A,2,82,81,67,68,,,,,,,,,1.5,1.1,0.9*2C
$GPGSV,3,1,09,15,59,056,18,18,45,295,18,21,38,333,22,22,16,262,20*77
$GPGSV,3,2,09,24,17,135,16,29,70,188,20,14,05,206,,25,07,191,*73
$GPGSV,3,3,09,26,21,042,*41
$GLGSV,2,1,08,,,,19,82,56,343,17,81,62,132,20,67,51,341,24*57
$GLGSV,2,2,08,68,37,257,22,66,13,026,,88,08,147,,83,00,331,*61
$GPGGA,233908.8,1928.583998,N,09907.984513,W,1,06,1.1,2246.1,M,0.0,M,,*41
$GNGNS,233908.8,1928.583998,N,09907.984513,W,AA,10,1.1,2246.1,0.0,,*72
$GPVTG,214.8,T,214.8,M,27.7,N,51.3,K,A*26
$GPRMC,233908.8,A,1928.583998,N,09907.984513,W,27.7,214.8,260914,0.0,E,A*28
$GPGSA,A,2,15,18,21,22,24,29,,,,,,,1.4,1.1,0.9*3C
$GNGSA,A,2,15,18,21,22,24,29,,,,,,,1.4,1.1,0.9*22
$GNGSA,A,2,82,81,67,68,,,,,,,,,1.4,1.1,0.9*2D
$GPGSV,3,1,09,15,59,056,19,18,45,295,21,21,38,333,20,22,16,262,20*7E
$GPGSV,3,2,09,24,17,135,16,26,21,042,17,29,70,188,20,14,05,206,*7D
$GPGSV,3,3,09,25,07,191,*49
$GLGSV,2,1,08,,,,19,82,56,343,17,81,62,132,20,67,51,341,18*58
$GLGSV,2,2,08,68,37,257,21,66,13,026,,88,08,147,,83,00,331,*62
$GPGGA,233909.8,1928.566901,N,09907.976704,W,1,07,1.0,2246.4,M,0.0,M,,*47
$GNGNS,233909.8,1928.566901,N,09907.976704,W,AA,11,1.0,2246.4,0.0,,*74
$GPVTG,217.5,T,217.5,M,29.0,N,53.8,K,A*26
$GPRMC,233909.8,A,1928.566901,N,09907.976704,W,29.0,217.5,260914,0.0,E,A*2C
$GPGSA,A,2,15,18,21,22,24,26,29,,,,,,1.3,1.0,0.8*3F
$GNGSA,A,2,15,18,21,22,24,26,29,,,,,,1.3,1.0,0.8*21
$GNGSA,A,2,82,81,67,68,,,,,,,,,1.3,1.0,0.8*2A
$GPGSV,3,1,09,15,59,056,19,18,45,295,25,21,38,333,18,22,16,262,20*71
$GPGSV,3,2,09,24,17,135,14,26,21,042,17,29,70,188,19,14,05,206,*75
$GPGSV,3,3,09,25,07,191,*49
$GLGSV,2,1,08,,,,19,82,56,343,16,81,62,132,22,67,51,341,18*5B
$GLGSV,2,2,08,68,37,257,21,66,13,026,,88,08,147,,83,00,331,*62
$GPGGA,233910.8,1928.559947,N,09907.981044,W,1,07,1.0,2241.7,M,0.0,M,,*4E
$GNGNS,233910.8,1928.559947,N,09907.981044,W,AA,11,1.0,2241.7,0.0,,*7D
$GPVTG,215.4,T,215.4,M,28.3,N,52.4,K,A*29
$GPRMC,233910.8,A,1928.559947,N,09907.981044,W,28.3,215.4,260914,0.0,E,A*20
$GPGSA,A,2,15,18,21,22,24,26,29,,,,,,1.3,1.0,0.8*3F
$GNGSA,A,2,15,18,21,22,24,26,29,,,,,,1.3,1.0,0.8*21
$GNGSA,A,2,82,81,67,68,,,,,,,,,1.3,1.0,0.8*2A
$GPGSV,3,1,09,15,59,056,19,18,45,295,24,21,38,333,17,22,16,262,20*7F
$GPGSV,3,2,09,24,17,135,14,26,21,042,18,29,70,188,18,14,05,206,*7B
$GPGSV,3,3,09,25,07,191,*49
$GLGSV,2,1,08,,,,19,82,56,343,17,81,62,132,22,67,51,341,20*51
$GLGSV,2,2,08,68,37,257,21,66,13,026,,88,08,147,,83,00,331,*62
$GPGGA,233911.8,1928.554359,N,09907.983997,W,1,07,1.0,2241.7,M,0.0,M,,*42
$GNGNS,233911.8,1928.554359,N,09907.983997,W,AA,11,1.0,2241.7,0.0,,*71
$GPVTG,216.9,T,216.9,M,29.5,N,54.7,K,A*2B
$GPRMC,233911.8,A,1928.554359,N,09907.983997,W,29.5,216.9,260914,0.0,E,A*25
$GPGSA,A,2,15,18,21,22,24,26,29,,,,,,1.3,1.0,0.8*3F
$GNGSA,A,2,15,18,21,22,24,26,29,,,,,,1.3,1.0,0.8*21
$GNGSA,A,2,82,81,67,68,,,,,,,,,1.3,1.0,0.8*2A
$GPGSV,3,1,09,15,59,056,18,18,45,295,26,21,38,333,20,22,16,262,20*78
$GPGSV,3,2,09,24,17,135,18,26,21,042,17,29,70,188,18,14,05,206,*78
$GPGSV,3,3,09,25,07,191,*49
$GLGSV,2,1,08,,,,19,82,56,343,18,81,62,132,21,67,51,341,19*57
$GLGSV,2,2,08,68,37,257,21,66,13,026,,88,08,147,,83,00,331,*62
$GPGGA,233912.8,1928.549202,N,09907.987710,W,1,07,1.0,2241.7,M,0.0,M,,*47
$GNGNS,233912.8,1928.549202,N,09907.987710,W,AA,11,1.0,2241.7,0.0,,*74
$GPVTG,218.8,T,218.8,M,29.3,N,54.2,K,A*28
$GPRMC,233912.8,A,1928.549202,N,09907.987710,W,29.3,218.8,260914,0.0,E,A*29
$GPGSA,A,2,15,18,21,22,24,26,29,,,,,,1.3,1.0,0.8*3F
$GNGSA,A,2,15,18,21,22,24,26,29,,,,,,1.3,1.0,0.8*21
$GNGSA,A,2,82,81,67,68,,,,,,,,,1.3,1.0,0.8*2A
$GPGSV,3,1,09,15,59,056,18,18,45,295,20,21,38,333,20,22,16,262,14*79
$GPGSV,3,2,09,24,17,135,18,26,21,042,18,29,70,188,18,14,05,206,*77
$GPGSV,3,3,09,25,07,191,*49
$GLGSV,2,1,08,,,,19,82,56,343,18,81,62,132,21,67,51,341,20*5D
$GLGSV,2,2,08,68,37,257,13,66,13,026,,88,08,147,,83,00,331,*63
$GPGGA,233913.8,1928.530462,N,09908.000390,W,1,07,1.0,2241.7,M,0.0,M,,*4D
$GNGNS,233913.8,1928.530462,N,09908.000390,W,AA,11,1.0,2241.7,0.0,,*7E
$GPVTG,216.3,T,216.3,M,25.0,N,46.3,K,A*25
$GPRMC,233913.8,A,1928.530462,N,09908.000390,W,25.0,216.3,260914,0.0,E,A*29
$GPGSA,A,2,15,18,21,22,24,26,29,,,,,,1.3,1.0,0.8*3F
$GNGSA,A,2,15,18,21,22,24,26,29,,,,,,1.3,1.0,0.8*21
$GNGSA,A,2,82,81,67,68,,,,,,,,,1.3,1.0,0.8*2A
$GPGSV,3,1,09,15,59,056,17,18,45,295,20,21,38,333,20,22,16,262,14*76
$GPGSV,3,2,09,24,17,135,18,26,21,042,17,29,70,188,17,14,05,206,*77
$GPGSV,3,3,09,25,07,191,*49
$GLGSV,2,1,08,,,,19,82,56,343,18,81,62,132,21,67,51,341,20*5D
$GLGSV,2,2,08,68,37,257,13,66,13,026,,88,08,147,,83,00,331,*63
$GPGGA,233914.8,1928.524455,N,09908.004833,W,1,07,1.0,2241.8,M,0.0,M,,*42
$GNGNS,233914.8,1928.524455,N,09908.004833,W,AA,11,1.0,2241.8,0.0,,*71
$GPVTG,217.0,T,217.0,M,27.6,N,51.2,K,A*26
$GPRMC,233914.8,A,1928.524455,N,09908.004833,W,27.6,217.0,260914,0.0,E,A*2F
$GPGSA,A,2,15,18,21,22,24,26,29,,,,,,1.3,1.0,0.8*3F
$GNGSA,A,2,15,18,21,22,24,26,29,,,,,,1.3,1.0,0.8*21
$GNGSA,A,2,82,81,67,68,,,,,,,,,1.3,1.0,0.8*2A
$GPGSV,3,1,09,15,59,056,17,18,45,295,20,21,38,333,20,22,16,262,14*76
$GPGSV,3,2,09,24,17,135,18,26,21,042,17,29,70,188,17,14,05,206,*77
$GPGSV,3,3,09,25,07,191,*49
$GLGSV,2,1,07,82,56,343,18,81,62,132,21,67,51,341,20,68,37,257,16*67
$GLGSV,2,2,07,66,13,026,,88,08,147,,83,00,331,*54
$GPGGA,233915.8,1928.518467,N,09908.008225,W,1,07,1.0,2236.6,M,0.0,M,,*42
$GNGNS,233915.8,1928.518467,N,09908.008225,W,AA,11,1.0,2236.6,0.0,,*71
$GPVTG,217.7,T,217.7,M,29.7,N,55.0,K,A*2F
$GPRMC,233915.8,A,1928.518467,N,09908.008225,W,29.7,217.7,260914,0.0,E,A*29
$GPGSA,A,2,15,18,21,22,24,26,29,,,,,,1.3,1.0,0.8*3F
$GNGSA,A,2,15,18,21,22,24,26,29,,,,,,1.3,1.0,0.8*21
$GNGSA,A,2,82,81,67,68,,,,,,,,,1.3,1.0,0.8*2A
$GPGSV,3,1,09,15,59,056,17,18,45,295,18,21,38,333,19,22,16,262,16*75
$GPGSV,3,2,09,24,17,135,18,26,21,042,17,29,70,188,17,14,05,206,*77
$GPGSV,3,3,09,25,07,191,*49
$GLGSV,2,1,07,82,56,343,18,81,62,132,16,67,51,341,16,68,37,257,19*69
$GLGSV,2,2,07,66,13,026,,88,08,147,,83,00,331,*54
$GPGGA,233916.8,1928.511918,N,09908.010657,W,1,07,1.0,2236.9,M,0.0,M,,*4A
$GNGNS,233916.8,1928.511918,N,09908.010657,W,AA,11,1.0,2236.9,0.0,,*79
$GPVTG,216.2,T,216.2,M,33.4,N,61.8,K,A*28
$GPRMC,233916.8,A,1928.511918,N,09908.010657,W,33.4,216.2,260914,0.0,E,A*22
$GPGSA,A,2,15,18,21,22,24,26,29,,,,,,1.3,1.0,0.8*3F
$GNGSA,A,2,15,18,21,22,24,26,29,,,,,,1.3,1.0,0.8*21
$GNGSA,A,2,82,81,67,68,,,,,,,,,1.3,1.0,0.8*2A
$GPGSV,3,1,09,15,59,056,23,18,45,295,16,21,38,333,19,22,16,262,16*7C
$GPGSV,3,2,09,24,17,135,18,26,21,042,17,29,70,188,17,14,05,206,*77
$GPGSV,3,3,09,25,07,191,*49
$GLGSV,2,1,07,82,56,343,18,81,62,132,22,67,51,341,16,68,37,257,19*6E
$GLGSV,2,2,07,66,13,026,,88,08,147,,83,00,331,*54
$GPGGA,233917.8,1928.509650,N,09908.020595,W,1,07,1.0,2235.9,M,0.0,M,,*4C
$GNGNS,233917.8,1928.509650,N,09908.020595,W,AA,11,1.0,2235.9,0.0,,*7F
$GPVTG,217.7,T,217.7,M,34.2,N,63.4,K,A*27
$GPRMC,233917.8,A,1928.509650,N,09908.020595,W,34.2,217.7,260914,0.0,E,A*22
$GPGSA,A,2,15,18,21,22,24,26,29,,,,,,1.3,1.0,0.8*3F
$GNGSA,A,2,15,18,21,22,24,26,29,,,,,,1.3,1.0,0.8*21
$GNGSA,A,2,82,81,67,68,,,,,,,,,1.3,1.0,0.8*2A
$GPGSV,3,1,09,15,59,056,23,18,45,295,16,21,38,333,19,22,16,262,16*7C
$GPGSV,3,2,09,24,17,135,18,26,21,042,17,29,70,188,17,14,05,206,*77
$GPGSV,3,3,09,25,07,191,*49
$GLGSV,2,1,07,82,56,343,18,81,62,132,22,67,51,341,16,68,37,257,19*6E
$GLGSV,2,2,07,66,13,026,,88,08,147,,83,00,331,*54
$GPGGA,233918.8,1928.502733,N,09908.026114,W,1,07,1.0,2233.9,M,0.0,M,,*41
$GNGNS,233918.8,1928.502733,N,09908.026114,W,AA,11,1.0,2233.9,0.0,,*72
$GPVTG,217.4,T,217.4,M,34.2,N,63.3,K,A*20
$GPRMC,233918.8,A,1928.502733,N,09908.026114,W,34.2,217.4,260914,0.0,E,A*2A
$GPGSA,A,2,15,18,21,22,24,26,29,,,,,,1.3,1.0,0.8*3F
$GNGSA,A,2,15,18,21,22,24,26,29,,,,,,1.3,1.0,0.8*21
$GNGSA,A,2,82,81,67,68,,,,,,,,,1.3,1.0,0.8*2A
$GPGSV,3,1,09,15,59,056,23,18,45,295,16,21,38,333,19,22,16,262,16*7C
$GPGSV,3,2,09,24,17,135,18,26,21,042,17,29,70,188,17,14,05,206,*77
$GPGSV,3,3,09,25,07,191,*49
$GLGSV,2,1,07,82,56,343,18,81,62,132,22,67,51,341,16,68,37,257,19*6E
$GLGSV,2,2,07,66,13,026,,88,08,147,,83,00,331,*54
$GPGGA,233919.8,1928.502355,N,09908.038924,W,1,06,1.4,2235.5,M,0.0,M,,*4F
$GNGNS,233919.8,1928.502355,N,09908.038924,W,AA,10,1.4,2235.5,0.0,,*7C
$GPVTG,217.5,T,217.5,M,33.7,N,62.5,K,A*25
$GPRMC,233919.8,A,1928.502355,N,09908.038924,W,33.7,217.5,260914,0.0,E,A*28
$GPGSA,A,2,15,18,21,22,26,29,,,,,,,1.6,1.4,0.9*39
$GNGSA,A,2,15,18,21,22,26,29,,,,,,,1.6,1.4,0.9*27
$GNGSA,A,2,82,81,67,68,,,,,,,,,1.6,1.4,0.9*2A
$GPGSV,3,1,09,15,59,056,23,18,45,295,16,21,38,333,19,22,16,262,16*7C
$GPGSV,3,2,09,24,17,135,18,26,21,042,17,29,70,188,17,14,05,206,*77
$GPGSV,3,3,09,25,07,191,*49
$GLGSV,2,1,07,82,56,343,18,81,62,132,22,67,51,341,16,68,37,257,19*6E
$GLGSV,2,2,07,66,13,026,,88,08,147,,83,00,331,*54
$GPGGA,233920.8,1928.495529,N,09908.044607,W,1,06,1.4,2235.4,M,0.0,M,,*43
$GNGNS,233920.8,1928.495529,N,09908.044607,W,AA,10,1.4,2235.4,0.0,,*70
$GPVTG,217.3,T,217.3,M,33.5,N,62.1,K,A*23
$GPRMC,233920.8,A,1928.495529,N,09908.044607,W,33.5,217.3,260914,0.0,E,A*21
$GPGSA,A,2,15,18,21,22,26,29,,,,,,,1.6,1.4,0.9*39
$GNGSA,A,2,15,18,21,22,26,29,,,,,,,1.6,1.4,0.9*27
$GNGSA,A,2,82,81,67,68,,,,,,,,,1.6,1.4,0.9*2A
$GPGSV,3,1,09,15,59,056,23,18,45,295,16,21,38,333,19,22,16,262,16*7C
$GPGSV,3,2,09,24,17,135,18,26,21,042,17,29,70,188,17,14,05,206,*77
$GPGSV,3,3,09,25,07,191,*49
$GLGSV,2,1,07,82,56,343,18,81,62,132,22,67,51,341,16,68,37,257,19*6E
$GLGSV,2,2,07,66,13,026,,88,08,147,,83,00,331,*54
$GPGGA,233921.8,1928.488256,N,09908.050798,W,1,06,1.4,2236.5,M,0.0,M,,*41
$GNGNS,233921.8,1928.488256,N,09908.050798,W,AA,10,1.4,2236.5,0.0,,*72
$GPVTG,217.1,T,217.1,M,33.4,N,61.8,K,A*28
$GPRMC,233921.8,A,1928.488256,N,09908.050798,W,33.4,217.1,260914,0.0,E,A*22
$GPGSA,A,2,15,18,21,22,26,29,,,,,,,1.6,1.4,0.9*39
$GNGSA,A,2,15,18,21,22,26,29,,,,,,,1.6,1.4,0.9*27
$GNGSA,A,2,82,81,67,68,,,,,,,,,1.6,1.4,0.9*2A
$GPGSV,3,1,09,15,59,056,23,18,45,295,16,21,38,333,19,22,16,262,16*7C
$GPGSV,3,2,09,24,17,135,18,26,21,042,17,29,70,188,17,14,05,206,*77
$GPGSV,3,3,09,25,07,191,*49
$GLGSV,2,1,07,82,56,343,18,81,62,132,22,67,51,341,16,68,37,257,19*6E
$GLGSV,2,2,07,66,13,026,,88,08,147,,83,00,331,*54
$GPGGA,233922.8,1928.491254,N,09908.047894,W,1,05,2.2,2236.5,M,0.0,M,,*4B
$GNGNS,233922.8,1928.491254,N,09908.047894,W,AA,07,2.2,2236.5,0.0,,*7D
$GPVTG,216.1,T,216.1,M,33.5,N,62.1,K,A*23
$GPRMC,233922.8,A,1928.491254,N,09908.047894,W,33.5,216.1,260914,0.0,E,A*2E
$GPGSA,A,2,15,18,21,26,29,,,,,,,,2.4,2.2,1.0*35
$GNGSA,A,2,15,18,21,26,29,,,,,,,,2.4,2.2,1.0*2B
$GNGSA,A,2,81,68,,,,,,,,,,,2.4,2.2,1.0*2D
$GPGSV,3,1,09,15,59,056,23,18,45,295,16,21,38,333,19,22,16,262,16*7C
$GPGSV,3,2,09,24,17,135,18,26,21,042,17,29,70,188,17,14,05,206,*77
$GPGSV,3,3,09,25,07,191,*49
$GLGSV,2,1,07,82,56,343,18,81,62,132,22,67,51,341,16,68,37,257,19*6E
$GLGSV,2,2,07,66,13,026,,88,08,147,,83,00,331,*54
$GPGGA,233923.8,,,,,0,,,,,,,,*7A
$GNGNS,233923.8,,,,,NN,,,,,,*4F
$GPVTG,,T,,M,,N,,K,N*2C
$GPRMC,,V,,,,,,,,,,N*53
$GPGSA,A,1,,,,,,,,,,,,,,,*1E
$GNGSA,A,1,,,,,,,,,,,,,,,*00
$GPGSV,3,1,09,15,59,056,23,18,45,295,16,21,38,333,19,22,16,262,16*7C
$GPGSV,3,2,09,24,17,135,18,26,21,042,17,29,70,188,17,14,05,206,*77
$GPGSV,3,3,09,25,07,191,*49
$GLGSV,2,1,07,82,56,343,18,81,62,132,22,67,51,341,16,68,37,257,19*6E
$GLGSV,2,2,07,66,13,026,,88,08,147,,83,00,331,*54
$GPGGA,233924.8,,,,,0,,,,,,,,*7D
$GNGNS,233924.8,,,,,NN,,,,,,*48
$GPVTG,,T,,M,,N,,K,N*2C
$GPRMC,,V,,,,,,,,,,N*53
$GPGSA,A,1,,,,,,,,,,,,,,,*1E
$GNGSA,A,1,,,,,,,,,,,,,,,*00
$GPGSV,3,1,09,15,59,056,23,18,45,295,16,21,38,333,19,22,16,262,16*7C
$GPGSV,3,2,09,24,17,135,18,26,21,042,17,29,70,188,17,14,05,206,*77
$GPGSV,3,3,09,25,07,191,*49
$GLGSV,2,1,07,82,56,343,18,81,62,132,22,67,51,341,16,68,37,257,19*6E
$GLGSV,2,2,07,66,13,026,,88,08,147,,83,00,331,*54
$GPGGA,233925.8,,,,,0,,,,,,,,*7C
$GNGNS,233925.8,,,,,NN,,,,,,*49
$GPVTG,,T,,M,,N,,K,N*2C
$GPRMC,,V,,,,,,,,,,N*53
$GPGSA,A,1,,,,,,,,,,,,,,,*1E
$GNGSA,A,1,,,,,,,,,,,,,,,*00
$GPGSV,3,1,09,15,59,056,23,18,45,295,16,21,38,333,19,22,16,262,16*7C
$GPGSV,3,2,09,24,17,135,18,26,21,042,17,29,70,188,17,14,05,206,*77
$GPGSV,3,3,09,25,07,191,*49
$GLGSV,2,1,07,82,56,343,18,81,62,132,22,67,51,341,16,68,37,257,19*6E
$GLGSV,2,2,07,66,13,026,,88,08,147,,83,00,331,*54
$GPGGA,233926.8,,,,,0,,,,,,,,*7F
$GNGNS,233926.8,,,,,NN,,,,,,*4A
$GPVTG,,T,,M,,N,,K,N*2C
$GPRMC,,V,,,,,,,,,,N*53
$GPGSA,A,1,,,,,,,,,,,,,,,*1E
$GNGSA,A,1,,,,,,,,,,,,,,,*00
$GPGSV,3,1,09,15,59,056,23,18,45,295,16,21,38,333,19,22,16,262,16*7C
$GPGSV,3,2,09,24,17,135,18,26,21,042,17,29,70,188,17,14,05,206,*77
$GPGSV,3,3,09,25,07,191,*49
$GLGSV,2,1,07,82,56,343,18,81,62,132,22,67,51,341,16,68,37,257,19*6E
$GLGSV,2,2,07,66,13,026,,88,08,147,,83,00,331,*54
$GPGGA,233927.8,,,,,0,,,,,,,,*7E
$GNGNS,233927.8,,,,,NN,,,,,,*4B
$GPVTG,,T,,M,,N,,K,N*2C
$GPRMC,,V,,,,,,,,,,N*53
$GPGSA,A,1,,,,,,,,,,,,,,,*1E
$GNGSA,A,1,,,,,,,,,,,,,,,*00
$GPGSV,3,1,09,15,59,056,23,18,45,295,16,21,38,333,19,22,16,262,16*7C
$GPGSV,3,2,09,24,17,135,18,26,21,042,17,29,70,188,17,14,05,206,*77
$GPGSV,3,3,09,25,07,191,*49
$GLGSV,2,1,07,82,56,343,18,81,62,132,22,67,51,341,16,68,37,257,19*6E
$GLGSV,2,2,07,66,13,026,,88,08,147,,83,00,331,*54
$GPGGA,233928.8,,,,,0,,,,,,,,*71
$GNGNS,233928.8,,,,,NN,,,,,,*44
$GPVTG,,T,,M,,N,,K,N*2C
$GPRMC,,V,,,,,,,,,,N*53
$GPGSA,A,1,,,,,,,,,,,,,,,*1E
$GNGSA,A,1,,,,,,,,,,,,,,,*00
$GPGSV,3,1,09,15,59,056,23,18,45,295,16,21,38,333,19,22,16,262,16*7C
$GPGSV,3,2,09,24,17,135,18,26,21,042,17,29,70,188,17,14,05,206,*77
$GPGSV,3,3,09,25,07,191,*49
$GLGSV,2,1,07,82,56,343,18,81,62,132,22,67,51,341,16,68,37,257,19*6E
$GLGSV,2,2,07,66,13,026,,88,08,147,,83,00,331,*54
$GPGGA,233929.8,,,,,0,,,,,,,,*70
$GNGNS,233929.8,,,,,NN,,,,,,*45
$GPVTG,,T,,M,,N,,K,N*2C
$GPRMC,,V,,,,,,,,,,N*53
$GPGSA,A,1,,,,,,,,,,,,,,,*1E
$GNGSA,A,1,,,,,,,,,,,,,,,*00
$GPGSV,3,1,09,15,59,056,23,18,45,295,16,21,38,333,19,22,16,262,16*7C
$GPGSV,3,2,09,24,17,135,18,26,21,042,17,29,70,188,17,14,05,206,*77
$GPGSV,3,3,09,25,07,191,*49
$GLGSV,2,1,07,82,56,343,18,81,62,132,22,67,51,341,16,68,37,257,19*6E
$GLGSV,2,2,07,66,13,026,,88,08,147,,83,00,331,*54
$GPGGA,233930.8,,,,,0,,,,,,,,*78
$GNGNS,233930.8,,,,,NN,,,,,,*4D
$GPVTG,,T,,M,,N,,K,N*2C
$GPRMC,,V,,,,,,,,,,N*53
$GPGSA,A,1,,,,,,,,,,,,,,,*1E
$GNGSA,A,1,,,,,,,,,,,,,,,*00
$GPGSV,3,1,09,15,59,056,23,18,45,295,16,21,38,333,19,22,16,262,16*7C
$GPGSV,3,2,09,24,17,135,18,26,21,042,17,29,70,188,17,14,05,206,*77
$GPGSV,3,3,09,25,07,191,*49
$GLGSV,2,1,07,82,56,343,18,81,62,132,22,67,51,341,16,68,37,257,19*6E
$GLGSV,2,2,07,66,13,026,,88,08,147,,83,00,331,*54
$GPGGA,233931.8,,,,,0,,,,,,,,*79
$GNGNS,233931.8,,,,,NN,,,,,,*4C
$GPVTG,,T,,M,,N,,K,N*2C
$GPRMC,,V,,,,,,,,,,N*53
$GPGSA,A,1,,,,,,,,,,,,,,,*1E
$GNGSA,A,1,,,,,,,,,,,,,,,*00
$GPGSV,3,1,09,15,59,056,23,18,45,295,16,21,38,333,19,22,16,262,16*7C
$GPGSV,3,2,09,24,17,135,18,26,21,042,17,29,70,188,17,14,05,206,*77
$GPGSV,3,3,09,25,07,191,*49
$GLGSV,2,1,07,82,56,343,18,81,62,132,22,67,51,341,16,68,37,257,19*6E
$GLGSV,2,2,07,66,13,026,,88,08,147,,83,00,331,*54
$GPGGA,233932.8,,,,,0,,,,,,,,*7A
$GNGNS,233932.8,,,,,NN,,,,,,*4F
$GPVTG,,T,,M,,N,,K,N*2C
$GPRMC,,V,,,,,,,,,,N*53
$GPGSA,A,1,,,,,,,,,,,,,,,*1E
$GNGSA,A,1,,,,,,,,,,,,,,,*00
$GPGSV,3,1,09,15,59,056,23,18,45,295,16,21,38,333,19,22,16,262,16*7C
$GPGSV,3,2,09,24,17,135,18,26,21,042,17,29,70,188,17,14,05,206,*77
$GPGSV,3,3,09,25,07,191,*49
$GLGSV,2,1,07,82,56,343,18,81,62,132,22,67,51,341,16,68,37,257,19*6E
$GLGSV,2,2,07,66,13,026,,88,08,147,,83,00,331,*54
$GPGGA,233933.8,,,,,0,,,,,,,,*7B
$GNGNS,233933.8,,,,,NN,,,,,,*4E
$GPVTG,,T,,M,,N,,K,N*2C
$GPRMC,,V,,,,,,,,,,N*53
$GPGSA,A,1,,,,,,,,,,,,,,,*1E
$GNGSA,A,1,,,,,,,,,,,,,,,*00
$GPGSV,3,1,09,15,59,056,23,18,45,295,16,21,38,333,19,22,16,262,16*7C
$GPGSV,3,2,09,24,17,135,18,26,21,042,17,29,70,188,17,14,05,206,*77
$GPGSV,3,3,09,25,07,191,*49
$GLGSV,2,1,07,82,56,343,18,81,62,132,22,67,51,341,16,68,37,257,19*6E
$GLGSV,2,2,07,66,13,026,,88,08,147,,83,00,331,*54
$GPGGA,233934.8,,,,,0,,,,,,,,*7C
$GNGNS,233934.8,,,,,NN,,,,,,*49
$GPVTG,,T,,M,,N,,K,N*2C
$GPRMC,,V,,,,,,,,,,N*53
$GPGSA,A,1,,,,,,,,,,,,,,,*1E
$GNGSA,A,1,,,,,,,,,,,,,,,*00
$GPGSV,3,1,09,15,59,056,23,18,45,295,16,21,38,333,19,22,16,262,16*7C
$GPGSV,3,2,09,24,17,135,18,26,21,042,17,29,70,188,17,14,05,206,*77
$GPGSV,3,3,09,25,07,191,*49
$GLGSV,2,1,07,82,56,343,18,81,62,132,22,67,51,341,16,68,37,257,19*6E
$GLGSV,2,2,07,66,13,026,,88,08,147,,83,00,331,*54
$GPGGA,233935.8,,,,,0,,,,,,,,*7D
$GNGNS,233935.8,,,,,NN,,,,,,*48
$GPVTG,,T,,M,,N,,K,N*2C
$GPRMC,,V,,,,,,,,,,N*53
$GPGSA,A,1,,,,,,,,,,,,,,,*1E
$GNGSA,A,1,,,,,,,,,,,,,,,*00
$GPGSV,2,1,08,15,59,056,23,18,45,295,16,21,38,333,19,22,16,262,16*7C
$GPGSV,2,2,08,26,21,042,17,29,70,188,17,14,05,206,,25,07,191,*70
$GLGSV,2,1,07,82,56,343,18,81,62,132,22,67,51,341,16,68,37,257,19*6E
$GLGSV,2,2,07,66,13,026,,88,08,147,,83,00,331,*54
$GPGGA,233936.8,,,,,0,,,,,,,,*7E
$GNGNS,233936.8,,,,,NN,,,,,,*4B
$GPVTG,,T,,M,,N,,K,N*2C
$GPRMC,,V,,,,,,,,,,N*53
$GPGSA,A,1,,,,,,,,,,,,,,,*1E
$GNGSA,A,1,,,,,,,,,,,,,,,*00
$GPGSV,2,1,06,15,59,056,23,18,45,295,16,21,38,333,19,22,16,262,16*72
$GPGSV,2,2,06,14,05,206,,25,07,191,*72
$GLGSV,2,1,07,82,56,343,18,81,62,132,22,67,51,341,16,68,37,257,19*6E
$GLGSV,2,2,07,66,13,026,,88,08,147,,83,00,331,*54
$GPGGA,233937.8,,,,,0,,,,,,,,*7F
$GNGNS,233937.8,,,,,NN,,,,,,*4A
$GPVTG,,T,,M,,N,,K,N*2C
$GPRMC,,V,,,,,,,,,,N*53
$GPGSA,A,1,,,,,,,,,,,,,,,*1E
$GNGSA,A,1,,,,,,,,,,,,,,,*00
$GPGSV,3,1,09,15,59,056,23,18,45,295,16,21,38,333,19,22,16,262,16*7C
$GPGSV,3,2,09,14,05,206,,24,17,135,,25,07,191,,26,21,042,*7A
$GPGSV,3,3,09,29,70,188,*4D
$GLGSV,2,1,07,82,56,343,18,81,62,132,22,67,51,341,16,68,37,257,19*6E
$GLGSV,2,2,07,66,13,026,,88,08,147,,83,00,331,*54
$GPGGA,233938.8,,,,,0,,,,,,,,*70
$GNGNS,233938.8,,,,,NN,,,,,,*45
$GPVTG,,T,,M,,N,,K,N*2C
$GPRMC,,V,,,,,,,,,,N*53
$GPGSA,A,1,,,,,,,,,,,,,,,*1E
$GNGSA,A,1,,,,,,,,,,,,,,,*00
$GPGSV,3,1,09,15,59,056,23,18,45,295,16,21,38,333,19,22,16,262,16*7C
$GPGSV,3,2,09,14,05,206,,24,17,135,,25,07,191,,26,21,042,*7A
$GPGSV,3,3,09,29,70,188,*4D
$GLGSV,2,1,07,82,56,343,18,81,62,132,22,67,51,341,16,68,37,257,19*6E
$GLGSV,2,2,07,66,13,026,,88,08,147,,83,00,331,*54
$GPGGA,233939.8,,,,,0,,,,,,,,*71
$GNGNS,233939.8,,,,,NN,,,,,,*44
$GPVTG,,T,,M,,N,,K,N*2C
$GPRMC,,V,,,,,,,,,,N*53
$GPGSA,A,1,,,,,,,,,,,,,,,*1E
$GNGSA,A,1,,,,,,,,,,,,,,,*00
$GPGSV,2,1,08,15,59,056,23,18,45,295,16,21,38,333,19,14,05,206,*7E
$GPGSV,2,2,08,24,17,135,,25,07,191,,26,21,042,,29,70,188,*73
$GLGSV,2,1,05,81,62,132,22,68,37,257,19,66,13,026,,88,08,147,*60
$GLGSV,2,2,05,83,00,331,*5A
$GPGGA,233940.8,,,,,0,,,,,,,,*7F
$GNGNS,233940.8,,,,,NN,,,,,,*4A
$GPVTG,,T,,M,,N,,K,N*2C
$GPRMC,,V,,,,,,,,,,N*53
$GPGSA,A,1,,,,,,,,,,,,,,,*1E
$GNGSA,A,1,,,,,,,,,,,,,,,*00
$GPGSV,3,1,09,15,59,056,23,18,45,295,16,21,38,333,19,14,05,206,*7E
$GPGSV,3,2,09,22,16,262,,24,17,135,,25,07,191,,26,21,042,*7F
$GPGSV,3,3,09,29,70,188,*4D
$GLGSV,2,1,06,81,62,132,22,66,13,026,,82,56,343,,88,08,147,*6C
$GLGSV,2,2,06,83,00,331,,67,51,341,*6A
$GPGGA,233941.8,,,,,0,,,,,,,,*7E
$GNGNS,233941.8,,,,,NN,,,,,,*4B
$GPVTG,,T,,M,,N,,K,N*2C
$GPRMC,,V,,,,,,,,,,N*53
$GPGSA,A,1,,,,,,,,,,,,,,,*1E
$GNGSA,A,1,,,,,,,,,,,,,,,*00
$GPGSV,2,1,06,14,05,206,,22,16,262,,24,17,135,,25,07,191,*77
$GPGSV,2,2,06,26,21,042,,29,70,188,*73
$GLGSV,2,1,06,66,13,026,,82,56,343,,88,08,147,,83,00,331,*6B
$GLGSV,2,2,06,67,51,341,,68,37,257,*6A
$GPGGA,233942.8,,,,,0,,,,,,,,*7D
$GNGNS,233942.8,,,,,NN,,,,,,*48
$GPVTG,,T,,M,,N,,K,N*2C
$GPRMC,,V,,,,,,,,,,N*53
$GPGSA,A,1,,,,,,,,,,,,,,,*1E
$GNGSA,A,1,,,,,,,,,,,,,,,*00
$GPGSV,3,1,09,14,05,206,,15,59,056,,18,45,295,,21,38,333,*70
$GPGSV,3,2,09,22,16,262,,24,17,135,,25,07,191,,26,21,042,*7F
$GPGSV,3,3,09,29,70,188,*4D
$GLGSV,2,1,07,66,13,026,,82,56,343,,88,08,147,,83,00,331,*6A
$GLGSV,2,2,07,81,62,132,,67,51,341,,68,37,257,*56
$GPGGA,233943.8,,,,,0,,,,,,,,*7C
$GNGNS,233943.8,,,,,NN,,,,,,*49
$GPVTG,,T,,M,,N,,K,N*2C
$GPRMC,,V,,,,,,,,,,N*53
$GPGSA,A,1,,,,,,,,,,,,,,,*1E
$GNGSA,A,1,,,,,,,,,,,,,,,*00
$GPGSV,3,1,09,14,05,206,,15,59,056,,18,45,295,,21,38,333,*70
$GPGSV,3,2,09,22,16,262,,24,17,135,,25,07,191,,26,21,042,*7F
$GPGSV,3,3,09,29,70,188,*4D
$GLGSV,2,1,07,66,13,026,,82,56,343,,88,08,147,,83,00,331,*6A
$GLGSV,2,2,07,81,62,132,,67,51,341,,68,37,257,*56
$GPGGA,233944.8,,,,,0,,,,,,,,*7B
$GNGNS,233944.8,,,,,NN,,,,,,*4E
$GPVTG,,T,,M,,N,,K,N*2C
$GPRMC,,V,,,,,,,,,,N*53
$GPGSA,A,1,,,,,,,,,,,,,,,*1E
$GNGSA,A,1,,,,,,,,,,,,,,,*00
$GPGSV,3,1,09,14,05,206,,15,59,056,,18,45,295,,21,38,333,*70
$GPGSV,3,2,09,22,16,262,,24,17,135,,25,07,191,,26,21,042,*7F
$GPGSV,3,3,09,29,70,188,*4D
$GLGSV,2,1,07,66,13,026,,82,56,343,,88,08,147,,83,00,331,*6A
$GLGSV,2,2,07,81,62,132,,67,51,341,,68,37,257,*56
$GPGGA,233945.8,,,,,0,,,,,,,,*7A
$GNGNS,233945.8,,,,,NN,,,,,,*4F
$GPVTG,,T,,M,,N,,K,N*2C
$GPRMC,,V,,,,,,,,,,N*53
$GPGSA,A,1,,,,,,,,,,,,,,,*1E
$GNGSA,A,1,,,,,,,,,,,,,,,*00
$GPGSV,3,1,09,14,05,206,,15,59,056,,18,45,295,,21,38,333,*70
$GPGSV,3,2,09,22,16,262,,24,17,135,,25,07,191,,26,21,042,*7F
$GPGSV,3,3,09,29,70,188,*4D
$GLGSV,2,1,07,66,13,026,,82,56,343,,88,08,147,,83,00,331,*6A
$GLGSV,2,2,07,81,62,132,,67,51,341,,68,37,257,*56
$GPGGA,233946.8,,,,,0,,,,,,,,*79
$GNGNS,233946.8,,,,,NN,,,,,,*4C
$GPVTG,,T,,M,,N,,K,N*2C
$GPRMC,,V,,,,,,,,,,N*53
$GPGSA,A,1,,,,,,,,,,,,,,,*1E
$GNGSA,A,1,,,,,,,,,,,,,,,*00
$GPGSV,3,1,09,14,05,206,,15,59,056,,18,45,295,,21,38,333,*70
$GPGSV,3,2,09,22,16,262,,24,17,135,,25,07,191,,26,21,042,*7F
$GPGSV,3,3,09,29,70,188,*4D
$GLGSV,2,1,07,66,13,026,,82,56,343,,88,08,147,,83,00,331,*6A
$GLGSV,2,2,07,81,62,132,,67,51,341,,68,37,257,*56
$GPGGA,233947.8,,,,,0,,,,,,,,*78
$GNGNS,233947.8,,,,,NN,,,,,,*4D
$GPVTG,,T,,M,,N,,K,N*2C
$GPRMC,,V,,,,,,,,,,N*53
$GPGSA,A,1,,,,,,,,,,,,,,,*1E
$GNGSA,A,1,,,,,,,,,,,,,,,*00
$GPGSV,3,1,09,14,05,206,,15,59,056,,18,45,295,,21,38,333,*70
$GPGSV,3,2,09,22,16,262,,24,17,135,,25,07,191,,26,21,042,*7F
$GPGSV,3,3,09,29,70,188,*4D
$GLGSV,2,1,07,66,13,026,,82,56,343,,88,08,147,,83,00,331,*6A
$GLGSV,2,2,07,81,62,132,,67,51,341,,68,37,257,*56
$GPGGA,233948.8,,,,,0,,,,,,,,*77
$GNGNS,233948.8,,,,,NN,,,,,,*42
$GPVTG,,T,,M,,N,,K,N*2C
$GPRMC,,V,,,,,,,,,,N*53
$GPGSA,A,1,,,,,,,,,,,,,,,*1E
$GNGSA,A,1,,,,,,,,,,,,,,,*00
$GPGSV,3,1,09,14,05,206,,15,59,056,,18,45,295,,21,38,333,*70
$GPGSV,3,2,09,22,16,262,,24,17,135,,25,07,191,,26,21,042,*7F
$GPGSV,3,3,09,29,70,188,*4D
$GLGSV,2,1,07,66,13,026,,82,56,343,,88,08,147,,83,00,331,*6A
$GLGSV,2,2,07,81,62,132,,67,51,341,,68,37,257,*56
$GPGGA,233949.8,,,,,0,,,,,,,,*76
$GNGNS,233949.8,,,,,NN,,,,,,*43
$GPVTG,,T,,M,,N,,K,N*2C
$GPRMC,,V,,,,,,,,,,N*53
$GPGSA,A,1,,,,,,,,,,,,,,,*1E
$GNGSA,A,1,,,,,,,,,,,,,,,*00
$GPGSV,3,1,09,14,05,206,,15,59,056,,18,45,295,,21,38,333,*70
$GPGSV,3,2,09,22,16,262,,24,17,135,,25,07,191,,26,21,042,*7F
$GPGSV,3,3,09,29,70,188,*4D
$GLGSV,2,1,07,66,13,026,,82,56,343,,88,08,147,,83,00,331,*6A
$GLGSV,2,2,07,81,62,132,,67,51,341,,68,37,257,*56
$GPGGA,233950.8,,,,,0,,,,,,,,*7E
$GNGNS,233950.8,,,,,NN,,,,,,*4B
$GPVTG,,T,,M,,N,,K,N*2C
$GPRMC,,V,,,,,,,,,,N*53
$GPGSA,A,1,,,,,,,,,,,,,,,*1E
$GNGSA,A,1,,,,,,,,,,,,,,,*00
$GPGSV,3,1,09,14,05,206,,15,59,056,,18,45,295,,21,38,333,*70
$GPGSV,3,2,09,22,16,262,,24,17,135,,25,07,191,,26,21,042,*7F
$GPGSV,3,3,09,29,70,188,*4D
$GLGSV,2,1,07,66,13,026,,82,56,343,,88,08,147,,83,00,331,*6A
$GLGSV,2,2,07,81,62,132,,67,51,341,,68,37,257,*56
$GPGGA,233951.8,,,,,0,,,,,,,,*7F
$GNGNS,233951.8,,,,,NN,,,,,,*4A
$GPVTG,,T,,M,,N,,K,N*2C
$GPRMC,,V,,,,,,,,,,N*53
$GPGSA,A,1,,,,,,,,,,,,,,,*1E
$GNGSA,A,1,,,,,,,,,,,,,,,*00
$GPGSV,3,1,09,14,05,206,,15,59,056,,18,45,295,,21,38,333,*70
$GPGSV,3,2,09,22,16,262,,24,17,135,,25,07,191,,26,21,042,*7F
$GPGSV,3,3,09,29,70,188,*4D
$GLGSV,2,1,07,66,13,026,,82,56,343,,88,08,147,,83,00,331,*6A
$GLGSV,2,2,07,81,62,132,,67,51,341,,68,37,257,*56
$GPGGA,233952.8,,,,,0,,,,,,,,*7C
$GNGNS,233952.8,,,,,NN,,,,,,*49
$GPVTG,,T,,M,,N,,K,N*2C
$GPRMC,,V,,,,,,,,,,N*53
$GPGSA,A,1,,,,,,,,,,,,,,,*1E
$GNGSA,A,1,,,,,,,,,,,,,,,*00
$GPGSV,3,1,09,14,05,206,,15,59,056,,18,45,295,,21,38,333,*70
$GPGSV,3,2,09,22,16,262,,24,17,135,,25,07,191,,26,21,042,*7F
$GPGSV,3,3,09,29,70,188,*4D
$GLGSV,2,1,07,66,13,026,,82,56,343,,88,08,147,,83,00,331,*6A
$GLGSV,2,2,07,81,62,132,,67,51,341,,68,37,257,*56
$GPGGA,233953.8,,,,,0,,,,,,,,*7D
$GNGNS,233953.8,,,,,NN,,,,,,*48
$GPVTG,,T,,M,,N,,K,N*2C
$GPRMC,,V,,,,,,,,,,N*53
$GPGSA,A,1,,,,,,,,,,,,,,,*1E
$GNGSA,A,1,,,,,,,,,,,,,,,*00
$GPGSV,3,1,09,14,05,206,,15,59,056,,18,45,295,,21,38,333,*70
$GPGSV,3,2,09,22,16,262,,24,17,135,,25,07,191,,26,21,042,*7F
$GPGSV,3,3,09,29,70,188,*4D
$GLGSV,2,1,07,66,13,026,,82,56,343,,88,08,147,,83,00,331,*6A
$GLGSV,2,2,07,81,62,132,,67,51,341,,68,37,257,*56
$GPGGA,233954.8,,,,,0,,,,,,,,*7A
$GNGNS,233954.8,,,,,NN,,,,,,*4F
$GPVTG,,T,,M,,N,,K,N*2C
$GPRMC,,V,,,,,,,,,,N*53
$GPGSA,A,1,,,,,,,,,,,,,,,*1E
$GNGSA,A,1,,,,,,,,,,,,,,,*00
$GPGSV,3,1,09,14,05,206,,15,59,056,,18,45,295,,21,38,333,*70
$GPGSV,3,2,09,22,16,262,,24,17,135,,25,07,191,,26,21,042,*7F
$GPGSV,3,3,09,29,70,188,*4D
$GLGSV,2,1,07,66,13,026,,82,56,343,,88,08,147,,83,00,331,*6A
$GLGSV,2,2,07,81,62,132,,67,51,341,,68,37,257,*56
$GPGGA,233955.8,,,,,0,,,,,,,,*7B
$GNGNS,233955.8,,,,,NN,,,,,,*4E
$GPVTG,,T,,M,,N,,K,N*2C
$GPRMC,,V,,,,,,,,,,N*53
$GPGSA,A,1,,,,,,,,,,,,,,,*1E
$GNGSA,A,1,,,,,,,,,,,,,,,*00
$GPGSV,3,1,09,14,05,206,,15,59,056,,18,45,295,,21,38,333,*70
$GPGSV,3,2,09,22,16,262,,24,17,135,,25,07,191,,26,21,042,*7F
$GPGSV,3,3,09,29,70,188,*4D
$GLGSV,2,1,07,66,13,026,,82,56,343,,88,08,147,,83,00,331,*6A
$GLGSV,2,2,07,81,62,132,,67,51,341,,68,37,257,*56
$GPGGA,233956.8,,,,,0,,,,,,,,*78
$GNGNS,233956.8,,,,,NN,,,,,,*4D
$GPVTG,,T,,M,,N,,K,N*2C
$GPRMC,,V,,,,,,,,,,N*53
$GPGSA,A,1,,,,,,,,,,,,,,,*1E
$GNGSA,A,1,,,,,,,,,,,,,,,*00
$GPGSV,3,1,09,14,05,206,,15,59,056,,18,45,295,,21,38,333,*70
$GPGSV,3,2,09,22,16,262,,24,17,135,,25,07,191,,26,21,042,*7F
$GPGSV,3,3,09,29,70,188,*4D
$GLGSV,2,1,07,66,13,026,,82,56,343,,88,08,147,,83,00,331,*6A
$GLGSV,2,2,07,81,62,132,,67,51,341,,68,37,257,*56
$GPGGA,233957.8,,,,,0,,,,,,,,*79
$GNGNS,233957.8,,,,,NN,,,,,,*4C
$GPVTG,,T,,M,,N,,K,N*2C
$GPRMC,,V,,,,,,,,,,N*53
$GPGSA,A,1,,,,,,,,,,,,,,,*1E
$GNGSA,A,1,,,,,,,,,,,,,,,*00
$GPGSV,3,1,09,14,05,206,,15,59,056,,18,45,295,,21,38,333,*70
$GPGSV,3,2,09,22,16,262,,24,17,135,,25,07,191,,26,21,042,*7F
$GPGSV,3,3,09,29,70,188,*4D
$GLGSV,2,1,07,66,13,026,,82,56,343,,88,08,147,,83,00,331,*6A
$GLGSV,2,2,07,81,62,132,,67,51,341,,68,37,257,*56
$GPGGA,233958.8,,,,,0,,,,,,,,*76
$GNGNS,233958.8,,,,,NN,,,,,,*43
$GPVTG,,T,,M,,N,,K,N*2C
$GPRMC,,V,,,,,,,,,,N*53
$GPGSA,A,1,,,,,,,,,,,,,,,*1E
$GNGSA,A,1,,,,,,,,,,,,,,,*00
$GPGSV,3,1,09,14,05,206,,15,59,056,,18,45,295,,21,38,333,*70
$GPGSV,3,2,09,22,16,262,,24,17,135,,25,07,191,,26,21,042,*7F
$GPGSV,3,3,09,29,70,188,*4D
$GLGSV,2,1,07,66,13,026,,82,56,343,,88,08,147,,83,00,331,*6A
$GLGSV,2,2,07,81,62,132,,67,51,341,,68,37,257,*56
$GPGGA,233959.8,,,,,0,,,,,,,,*77
$GNGNS,233959.8,,,,,NN,,,,,,*42
$GPVTG,,T,,M,,N,,K,N*2C
$GPRMC,,V,,,,,,,,,,N*53
$GPGSA,A,1,,,,,,,,,,,,,,,*1E
$GNGSA,A,1,,,,,,,,,,,,,,,*00
$GPGSV,3,1,09,14,05,206,,15,59,056,,18,45,295,,21,38,333,*70
$GPGSV,3,2,09,22,16,262,,24,17,135,,25,07,191,,26,21,042,*7F
$GPGSV,3,3,09,29,70,188,*4D
$GLGSV,2,1,07,66,13,026,,82,56,343,,88,08,147,,83,00,331,*6A
$GLGSV,2,2,07,81,62,132,,67,51,341,,68,37,257,*56
$GPGGA,234000.8,,,,,0,,,,,,,,*75
$GNGNS,234000.8,,,,,NN,,,,,,*40
$GPVTG,,T,,M,,N,,K,N*2C
$GPRMC,,V,,,,,,,,,,N*53
$GPGSA,A,1,,,,,,,,,,,,,,,*1E
$GNGSA,A,1,,,,,,,,,,,,,,,*00
$GPGSV,3,1,09,14,05,206,,15,59,056,,18,45,295,,21,38,333,*70
$GPGSV,3,2,09,22,16,262,,24,17,135,,25,07,191,,26,21,042,*7F
$GPGSV,3,3,09,29,70,188,*4D
$GLGSV,2,1,07,66,13,026,,82,56,343,,88,08,147,,83,00,331,*6A
$GLGSV,2,2,07,81,62,132,,67,51,341,,68,37,257,*56
$GPGGA,234001.8,,,,,0,,,,,,,,*74
$GNGNS,234001.8,,,,,NN,,,,,,*41
$GPVTG,,T,,M,,N,,K,N*2C
$GPRMC,,V,,,,,,,,,,N*53
$GPGSA,A,1,,,,,,,,,,,,,,,*1E
$GNGSA,A,1,,,,,,,,,,,,,,,*00
$GPGSV,3,1,09,14,05,206,,15,59,056,,18,45,295,,21,38,333,*70
$GPGSV,3,2,09,22,16,262,,24,17,135,,25,07,191,,26,21,042,*7F
$GPGSV,3,3,09,29,70,188,*4D
$GLGSV,2,1,07,66,13,026,,82,56,343,,88,08,147,,83,00,331,*6A
$GLGSV,2,2,07,81,62,132,,67,51,341,,68,37,257,*56
$GPGGA,234002.8,,,,,0,,,,,,,,*77
$GNGNS,234002.8,,,,,NN,,,,,,*42
$GPVTG,,T,,M,,N,,K,N*2C
$GPRMC,,V,,,,,,,,,,N*53
$GPGSA,A,1,,,,,,,,,,,,,,,*1E
$GNGSA,A,1,,,,,,,,,,,,,,,*00
$GPGSV,3,1,09,14,05,206,,15,59,056,,18,45,295,,21,38,333,*70
$GPGSV,3,2,09,22,16,262,,24,17,135,,25,07,191,,26,21,042,*7F
$GPGSV,3,3,09,29,70,188,*4D
$GLGSV,2,1,07,66,13,026,,82,56,343,,88,08,147,,83,00,331,*6A
$GLGSV,2,2,07,81,62,132,,67,51,341,,68,37,257,*56
$GPGGA,234003.8,,,,,0,,,,,,,,*76
$GNGNS,234003.8,,,,,NN,,,,,,*43
$GPVTG,,T,,M,,N,,K,N*2C
$GPRMC,,V,,,,,,,,,,N*53
$GPGSA,A,1,,,,,,,,,,,,,,,*1E
$GNGSA,A,1,,,,,,,,,,,,,,,*00
$GPGSV,3,1,09,14,05,206,,15,59,056,,18,45,295,,21,38,333,*70
$GPGSV,3,2,09,22,16,262,,24,17,135,,25,07,191,,26,21,042,*7F
$GPGSV,3,3,09,29,70,188,*4D
$GLGSV,2,1,07,66,13,026,,82,56,343,,88,08,147,,83,00,331,*6A
$GLGSV,2,2,07,81,62,132,,67,51,341,,68,37,257,*56
$GPGGA,234004.8,,,,,0,,,,,,,,*71
