$GLGSV,3,2,09,84,80,289,27,83,38,160,17,85,30,329,34,71,11,253,25*6A
$GLGSV,3,3,09,79,10,087,*5C
$GPGGA,010131.0,1919.107427,N,09902.243048,W,1,06,0.9,2264.0,M,0.0,M,,*4D
$GNGNS,010131.0,1919.107427,N,09902.243048,W,AA,11,0.9,2264.0,0.0,,*7F
$GPVTG,251.7,T,251.7,M,0.0,N,0.0,K,A*23
$GPRMC,010131.0,A,1919.107427,N,09902.243048,W,0.0,251.7,210914,0.0,E,A*17
$GPGSA,A,2,14,15,18,21,22,24,,,,,,,1.2,0.9,0.9*3D
$GNGSA,A,2,14,15,18,21,22,24,,,,,,,1.2,0.9,0.9*23
$GNGSA,A,2,69,70,71,84,85,,,,,,,,1.2,0.9,0.9*21
$GPGSV,3,1,11,14,29,213,32,15,35,036,31,18,46,331,36,21,57,355,34*7B
$GPGSV,3,2,11,22,26,288,28,24,30,108,18,29,41,180,18,48,,,39*49
$GPGSV,3,3,11,25,,,,26,,,,27,06,319,*42
$GLGSV,3,1,09,,,,29,70,40,299,37,80,07,139,14,69,30,011,37*59
$GLGSV,3,2,09,84,80,289,26,83,38,160,21,85,30,329,35,71,11,253,20*6A
$GLGSV,3,3,09,79,10,087,*5C
$GPGGA,010132.0,1919.107426,N,09902.243074,W,1,06,0.8,2264.0,M,0.0,M,,*41
$GNGNS,010132.0,1919.107426,N,09902.243074,W,AA,12,0.8,2264.0,0.0,,*70
$GPVTG,251.7,T,251.7,M,0.0,N,0.0,K,A*23
$GPRMC,010132.0,A,1919.107426,N,09902.243074,W,0.0,251.7,210914,0.0,E,A*1A
$GPGSA,A,2,14,15,18,21,22,24,,,,,,,1.2,0.8,0.9*3C
$GNGSA,A,2,14,15,18,21,22,24,,,,,,,1.2,0.8,0.9*22
$GNGSA,A,2,69,70,71,83,84,85,,,,,,,1.2,0.8,0.9*2B
$GPGSV,3,1,11,14,29,213,34,15,35,036,31,18,46,331,37,21,57,355,36*7E
$GPGSV,3,2,11,22,26,288,30,24,30,108,22,48,,,39,25,,,*70
$GPGSV,3,3,11,26,,,,27,06,319,,29,41,180,*72
$GLGSV,3,1,09,,,,31,70,40,299,36,80,07,139,14,69,30,011,35*53
$GLGSV,3,2,09,84,80,289,24,83,38,160,25,85,30,329,35,71,11,253,20*6C
$GLGSV,3,3,09,79,10,087,*5C
$GPGGA,010133.0,1919.107427,N,09902.243090,W,1,06,0.8,2263.9,M,0.0,M,,*45
$GNGNS,010133.0,1919.107427,N,09902.243090,W,AA,12,0.8,2263.9,0.0,,*74
$GPVTG,251.7,T,251.7,M,0.0,N,0.0,K,A*23
$GPRMC,010133.0,A,1919.107427,N,09902.243090,W,0.0,251.7,210914,0.0,E,A*10
$GPGSA,A,2,14,15,18,21,22,24,,,,,,,1.2,0.8,0.9*3C
$GNGSA,A,2,14,15,18,21,22,24,,,,,,,1.2,0.8,0.9*22
$GNGSA,A,2,69,70,71,83,84,85,,,,,,,1.2,0.8,0.9*2B
$GPGSV,3,1,11,14,29,213,35,15,35,036,28,18,46,331,34,21,57,355,30*72
$GPGSV,3,2,11,22,26,288,31,24,30,108,22,48,,,37,25,,,*7F
$GPGSV,3,3,11,26,,,,27,06,319,,29,41,180,*72
$GLGSV,3,1,09,,,,30,70,40,299,31,80,07,139,14,69,30,011,29*58
$GLGSV,3,2,09,84,80,289,22,83,38,160,21,85,30,329,38,71,11,253,18*68
$GLGSV,3,3,09,79,10,087,*5C
$GPGGA,010134.0,1919.107431,N,09902.243095,W,1,06,0.8,2263.9,M,0.0,M,,*40
$GNGNS,010134.0,1919.107431,N,09902.243095,W,AA,12,0.8,2263.9,0.0,,*71
$GPVTG,251.7,T,251.7,M,0.0,N,0.0,K,A*23
$GPRMC,010134.0,A,1919.107431,N,09902.243095,W,0.0,251.7,210914,0.0,E,A*15
$GPGSA,A,2,14,15,18,21,22,24,,,,,,,1.2,0.8,0.9*3C
$GNGSA,A,2,14,15,18,21,22,24,,,,,,,1.2,0.8,0.9*22
$GNGSA,A,2,69,70,71,83,84,85,,,,,,,1.2,0.8,0.9*2B
$GPGSV,3,1,11,14,29,213,33,15,35,036,34,18,46,331,35,21,57,355,32*7A
$GPGSV,3,2,11,22,26,288,32,24,30,108,20,29,41,180,23,48,,,36*4E
$GPGSV,3,3,11,25,,,,26,,,,27,06,319,*42
$GLGSV,3,1,09,,,,30,70,40,299,38,80,07,139,14,69,30,011,32*5B
$GLGSV,3,2,09,84,80,289,27,83,38,160,21,85,30,329,31,71,11,253,24*6B
$GLGSV,3,3,09,79,10,087,*5C
$GPGGA,010135.0,1919.107437,N,09902.243099,W,1,07,0.8,2263.9,M,0.0,M,,*4A
$GNGNS,010135.0,1919.107437,N,09902.243099,W,AA,13,0.8,2263.9,0.0,,*7B
$GPVTG,251.7,T,251.7,M,0.0,N,0.0,K,A*23
$GPRMC,010135.0,A,1919.107437,N,09902.243099,W,0.0,251.7,210914,0.0,E,A*1E
$GPGSA,A,2,14,15,18,21,22,24,29,,,,,,1.1,0.8,0.8*35
$GNGSA,A,2,14,15,18,21,22,24,29,,,,,,1.1,0.8,0.8*2B
$GNGSA,A,2,69,70,71,83,84,85,,,,,,,1.1,0.8,0.8*29
$GPGSV,3,1,11,14,29,213,31,15,35,036,32,18,46,331,36,21,57,355,34*7B
$GPGSV,3,2,11,22,26,288,29,24,30,108,18,29,41,180,20,48,,,34*4E
$GPGSV,3,3,11,25,,,,26,,,,27,06,319,*42
$GLGSV,3,1,09,,,,30,70,40,299,36,80,07,139,14,69,30,011,35*52
$GLGSV,3,2,09,84,80,289,25,83,38,160,17,85,30,329,34,71,11,253,26*6B
$GLGSV,3,3,09,79,10,087,*5C
$GPGGA,010136.0,1919.107492,N,09902.243084,W,1,07,0.8,2263.8,M,0.0,M,,*4B
$GNGNS,010136.0,1919.107492,N,09902.243084,W,AA,13,0.8,2263.8,0.0,,*7A
$GPVTG,251.7,T,251.7,M,0.0,N,0.0,K,A*23
$GPRMC,010136.0,A,1919.107492,N,09902.243084,W,0.0,251.7,210914,0.0,E,A*1E
$GPGSA,A,2,14,15,18,21,22,24,29,,,,,,1.1,0.8,0.8*35
$GNGSA,A,2,14,15,18,21,22,24,29,,,,,,1.1,0.8,0.8*2B
$GNGSA,A,2,69,70,71,83,84,85,,,,,,,1.1,0.8,0.8*29
$GPGSV,3,1,11,14,29,213,34,15,35,036,25,18,46,331,32,21,57,355,30*78
$GPGSV,3,2,11,22,26,288,23,24,30,108,19,29,41,180,20,48,,,34*45
$GPGSV,3,3,11,25,,,,26,,,,27,06,319,*42
$GLGSV,3,1,09,,,,29,70,40,299,32,80,07,139,14,69,30,011,28*52
$GLGSV,3,2,09,84,80,289,20,83,38,160,19,85,30,329,30,71,11,253,18*69
$GLGSV,3,3,09,79,10,087,*5C
$GPGGA,010137.0,1919.107496,N,09902.243229,W,1,07,0.8,2262.4,M,0.0,M,,*46
$GNGNS,010137.0,1919.107496,N,09902.243229,W,AA,13,0.8,2262.4,0.0,,*77
$GPVTG,251.7,T,251.7,M,0.0,N,0.0,K,A*23
$GPRMC,010137.0,A,1919.107496,N,09902.243229,W,0.0,251.7,210914,0.0,E,A*1E
$GPGSA,A,2,14,15,18,21,22,24,29,,,,,,1.1,0.8,0.8*35
$GNGSA,A,2,14,15,18,21,22,24,29,,,,,,1.1,0.8,0.8*2B
$GNGSA,A,2,69,70,71,83,84,85,,,,,,,1.1,0.8,0.8*29
$GPGSV,3,1,11,14,29,213,27,15,35,036,23,18,46,331,24,21,57,355,27*7D
$GPGSV,3,2,11,22,26,288,18,24,30,108,19,29,41,180,20,48,,,34*4D
$GPGSV,3,3,11,25,,,,26,,,,27,06,319,*42
$GLGSV,3,1,09,,,,28,70,40,299,31,80,07,139,14,69,30,011,23*5B
$GLGSV,3,2,09,84,80,289,21,83,38,160,19,85,30,329,24,71,11,253,18*6D
$GLGSV,3,3,09,79,10,087,*5C
$GPGGA,010138.0,1919.107700,N,09902.243441,W,1,07,0.8,2261.2,M,0.0,M,,*48
$GNGNS,010138.0,1919.107700,N,09902.243441,W,AA,13,0.8,2261.2,0.0,,*79
$GPVTG,251.7,T,251.7,M,0.3,N,0.6,K,A*26
$GPRMC,010138.0,A,1919.107700,N,09902.243441,W,0.3,251.7,210914,0.0,E,A*16
$GPGSA,A,2,14,15,18,21,22,24,29,,,,,,1.1,0.8,0.8*35
$GNGSA,A,2,14,15,18,21,22,24,29,,,,,,1.1,0.8,0.8*2B
$GNGSA,A,2,69,70,71,83,84,85,,,,,,,1.1,0.8,0.8*29
$GPGSV,3,1,11,14,29,213,29,15,35,036,24,18,46,331,30,21,57,355,26*70
$GPGSV,3,2,11,22,26,288,18,24,30,108,19,29,41,180,20,48,,,34*4D
$GPGSV,3,3,11,25,,,,26,,,,27,06,319,*42
$GLGSV,3,1,09,,,,27,70,40,299,31,80,07,139,14,69,30,011,20*57
$GLGSV,3,2,09,84,80,289,18,83,38,160,16,85,30,329,26,71,11,253,18*6A
$GLGSV,3,3,09,79,10,087,*5C
$GPGGA,010139.0,1919.107863,N,09902.243745,W,1,07,0.8,2260.3,M,0.0,M,,*44
$GNGNS,010139.0,1919.107863,N,09902.243745,W,AA,13,0.8,2260.3,0.0,,*75
$GPVTG,251.7,T,251.7,M,0.0,N,0.0,K,A*23
$GPRMC,010139.0,A,1919.107863,N,09902.243745,W,0.0,251.7,210914,0.0,E,A*19
$GPGSA,A,2,14,15,18,21,22,24,29,,,,,,1.1,0.8,0.8*35
$GNGSA,A,2,14,15,18,21,22,24,29,,,,,,1.1,0.8,0.8*2B
$GNGSA,A,2,69,70,71,83,84,85,,,,,,,1.1,0.8,0.8*29
$GPGSV,3,1,11,14,29,213,24,15,35,036,24,18,46,331,25,21,57,355,25*7A
$GPGSV,3,2,11,22,26,288,23,24,30,108,19,29,41,180,20,48,,,32*43
$GPGSV,3,3,11,25,,,,26,,,,27,06,319,*42
$GLGSV,3,1,09,,,,27,70,40,299,32,80,07,139,10,69,30,011,26*56
$GLGSV,3,2,09,84,80,289,19,83,38,160,18,85,30,329,24,71,11,253,18*67
$GLGSV,3,3,09,79,10,087,*5C
$GPGGA,010140.0,1919.108020,N,09902.244076,W,1,07,0.8,2260.7,M,0.0,M,,*4E
$GNGNS,010140.0,1919.108020,N,09902.244076,W,AA,13,0.8,2260.7,0.0,,*7F
$GPVTG,251.7,T,251.7,M,0.3,N,0.6,K,A*26
$GPRMC,010140.0,A,1919.108020,N,09902.244076,W,0.3,251.7,210914,0.0,E,A*14
$GPGSA,A,2,14,15,18,21,22,24,29,,,,,,1.1,0.8,0.8*35
$GNGSA,A,2,14,15,18,21,22,24,29,,,,,,1.1,0.8,0.8*2B
$GNGSA,A,2,69,70,71,83,84,85,,,,,,,1.1,0.8,0.8*29
$GPGSV,3,1,11,14,29,213,29,15,35,036,25,18,46,331,32,21,57,355,30*74
$GPGSV,3,2,11,22,26,288,21,24,30,108,19,29,41,180,20,48,,,34*47
$GPGSV,3,3,11,25,,,,26,,,,27,06,319,*42
$GLGSV,3,1,09,,,,31,70,40,299,34,80,07,139,10,69,30,011,32*52
$GLGSV,3,2,09,84,80,289,26,83,38,160,18,85,30,329,29,71,11,253,18*66
$GLGSV,3,3,09,79,10,087,*5C
$GPGGA,010141.0,1919.108190,N,09902.244484,W,1,07,0.8,2260.9,M,0.0,M,,*42
$GNGNS,010141.0,1919.108190,N,09902.244484,W,AA,13,0.8,2260.9,0.0,,*73
$GPVTG,251.7,T,251.7,M,0.4,N,0.7,K,A*20
$GPRMC,010141.0,A,1919.108190,N,09902.244484,W,0.4,251.7,210914,0.0,E,A*11
$GPGSA,A,2,14,15,18,21,22,24,29,,,,,,1.1,0.8,0.8*35
$GNGSA,A,2,14,15,18,21,22,24,29,,,,,,1.1,0.8,0.8*2B
$GNGSA,A,2,69,70,71,83,84,85,,,,,,,1.1,0.8,0.8*29
$GPGSV,3,1,11,14,29,213,31,15,35,036,25,18,46,331,35,21,57,355,31*7B
$GPGSV,3,2,11,22,26,288,23,24,30,108,19,29,41,180,20,48,,,36*47
$GPGSV,3,3,11,25,,,,26,,,,27,06,319,*42
$GLGSV,3,1,09,,,,28,70,40,299,32,80,07,139,10,69,30,011,35*5B
$GLGSV,3,2,09,84,80,289,22,83,38,160,17,85,30,329,31,71,11,253,18*64
$GLGSV,3,3,09,79,10,087,*5C
$GPGGA,010142.0,1919.108398,N,09902.244902,W,1,07,0.8,2259.5,M,0.0,M,,*4E
$GNGNS,010142.0,1919.108398,N,09902.244902,W,AA,13,0.8,2259.5,0.0,,*7F
$GPVTG,251.7,T,251.7,M,0.4,N,0.8,K,A*2F
$GPRMC,010142.0,A,1919.108398,N,09902.244902,W,0.4,251.7,210914,0.0,E,A*1B
$GPGSA,A,2,14,15,18,21,22,24,29,,,,,,1.1,0.8,0.8*35
$GNGSA,A,2,14,15,18,21,22,24,29,,,,,,1.1,0.8,0.8*2B
$GNGSA,A,2,69,70,71,83,84,85,,,,,,,1.1,0.8,0.8*29
$GPGSV,3,1,11,14,29,213,28,15,35,036,32,18,46,331,37,21,57,355,30*76
$GPGSV,3,2,11,22,26,288,23,24,30,108,19,29,41,180,20,48,,,32*43
$GPGSV,3,3,11,25,,,,26,,,,27,06,319,*42
$GLGSV,3,1,09,,,,31,70,40,299,37,80,07,139,10,69,30,011,26*54
$GLGSV,3,2,09,84,80,289,20,83,38,160,17,85,30,329,31,71,11,253,18*66
$GLGSV,3,3,09,79,10,087,*5C
$GPGGA,010143.0,1919.108967,N,09902.245794,W,1,07,0.8,2258.7,M,0.0,M,,*46
$GNGNS,010143.0,1919.108967,N,09902.245794,W,AA,13,0.8,2258.7,0.0,,*77
$GPVTG,251.7,T,251.7,M,0.0,N,0.0,K,A*23
$GPRMC,010143.0,A,1919.108967,N,09902.245794,W,0.0,251.7,210914,0.0,E,A*14
$GPGSA,A,2,14,15,18,21,22,24,29,,,,,,1.1,0.8,0.8*35
$GNGSA,A,2,14,15,18,21,22,24,29,,,,,,1.1,0.8,0.8*2B
$GNGSA,A,2,69,70,71,83,84,85,,,,,,,1.1,0.8,0.8*29
$GPGSV,3,1,11,14,29,213,28,15,35,036,33,18,46,331,33,21,57,355,33*70
$GPGSV,3,2,11,22,26,288,26,24,30,108,19,29,41,180,15,48,,,32*40
$GPGSV,3,3,11,25,,,,26,,,,27,06,319,*42
$GLGSV,3,1,09,,,,30,70,40,299,34,80,07,139,10,69,30,011,35*54
$GLGSV,3,2,09,84,80,289,24,83,38,160,18,85,30,329,34,71,11,253,18*68
$GLGSV,3,3,09,79,10,087,*5C
$GPGGA,010144.0,1919.109165,N,09902.246106,W,1,06,0.9,2258.5,M,0.0,M,,*46
$GNGNS,010144.0,1919.109165,N,09902.246106,W,AA,11,0.9,2258.5,0.0,,*74
$GPVTG,251.7,T,251.7,M,0.0,N,0.0,K,A*23
$GPRMC,010144.0,A,1919.109165,N,09902.246106,W,0.0,251.7,210914,0.0,E,A*16
$GPGSA,A,2,14,15,18,21,22,29,,,,,,,1.3,0.9,0.9*31
$GNGSA,A,2,14,15,18,21,22,29,,,,,,,1.3,0.9,0.9*2F
$GNGSA,A,2,69,70,83,84,85,,,,,,,,1.3,0.9,0.9*2D
$GPGSV,3,1,11,14,29,213,28,15,35,036,35,18,46,331,37,21,57,355,35*74
$GPGSV,3,2,11,22,26,288,29,24,30,108,19,29,41,180,20,48,,,32*49
$GPGSV,3,3,11,25,,,,26,,,,27,06,319,*42
$GLGSV,3,1,09,,,,30,70,40,299,33,80,07,139,10,69,30,011,35*53
$GLGSV,3,2,09,84,80,289,25,83,38,160,20,85,30,329,34,71,11,253,18*62
$GLGSV,3,3,09,79,10,087,*5C
$GPGGA,010145.0,1919.109316,N,09902.246402,W,1,06,0.9,2258.9,M,0.0,M,,*4C
$GNGNS,010145.0,1919.109316,N,09902.246402,W,AA,11,0.9,2258.9,0.0,,*7E
$GPVTG,251.7,T,251.7,M,0.0,N,0.0,K,A*23
$GPRMC,010145.0,A,1919.109316,N,09902.246402,W,0.0,251.7,210914,0.0,E,A*10
$GPGSA,A,2,14,15,18,21,22,29,,,,,,,1.3,0.9,0.9*31
$GNGSA,A,2,14,15,18,21,22,29,,,,,,,1.3,0.9,0.9*2F
$GNGSA,A,2,69,70,83,84,85,,,,,,,,1.3,0.9,0.9*2D
$GPGSV,3,1,11,14,29,213,28,15,35,036,26,18,46,331,34,21,57,355,34*74
$GPGSV,3,2,11,22,26,288,23,24,30,108,19,29,41,180,20,48,,,32*43
$GPGSV,3,3,11,25,,,,26,,,,27,06,319,*42
$GLGSV,3,1,09,,,,24,70,40,299,22,80,07,139,10,69,30,011,24*56
$GLGSV,3,2,09,84,80,289,25,83,38,160,20,85,30,329,29,71,11,253,18*6E
$GLGSV,3,3,09,79,10,087,*5C
$GPGGA,010146.0,1919.109416,N,09902.246490,W,1,06,0.9,2258.2,M,0.0,M,,*48
$GNGNS,010146.0,1919.109416,N,09902.246490,W,AA,11,0.9,2258.2,0.0,,*7A
$GPVTG,251.7,T,251.7,M,0.0,N,0.0,K,A*23
$GPRMC,010146.0,A,1919.109416,N,09902.246490,W,0.0,251.7,210914,0.0,E,A*1F
$GPGSA,A,2,14,15,18,21,22,29,,,,,,,1.3,0.9,0.9*31
$GNGSA,A,2,14,15,18,21,22,29,,,,,,,1.3,0.9,0.9*2F
$GNGSA,A,2,69,70,83,84,85,,,,,,,,1.3,0.9,0.9*2D
$GPGSV,3,1,11,14,29,213,18,15,35,036,21,18,46,331,34,21,57,355,33*77
$GPGSV,3,2,11,22,26,288,24,24,30,108,19,29,41,180,20,48,,,32*44
$GPGSV,3,3,11,25,,,,26,,,,27,06,319,*42
$GLGSV,3,1,09,,,,24,70,40,299,22,80,07,139,10,69,30,011,26*54
$GLGSV,3,2,09,84,80,289,25,83,38,160,14,85,30,329,27,71,11,253,18*67
$GLGSV,3,3,09,79,10,087,*5C
$GPGGA,010147.0,1919.109512,N,09902.246608,W,1,06,0.9,2257.9,M,0.0,M,,*4B
$GNGNS,010147.0,1919.109512,N,09902.246608,W,AA,11,0.9,2257.9,0.0,,*79
$GPVTG,251.7,T,251.7,M,0.0,N,0.0,K,A*23
$GPRMC,010147.0,A,1919.109512,N,09902.246608,W,0.0,251.7,210914,0.0,E,A*18
$GPGSA,A,2,14,15,18,21,22,29,,,,,,,1.3,0.9,0.9*31
$GNGSA,A,2,14,15,18,21,22,29,,,,,,,1.3,0.9,0.9*2F
$GNGSA,A,2,69,70,83,84,85,,,,,,,,1.3,0.9,0.9*2D
$GPGSV,3,1,11,14,29,213,19,15,35,036,18,18,46,331,34,21,57,355,32*7D
$GPGSV,3,2,11,22,26,288,24,24,30,108,19,29,41,180,20,48,,,32*44
$GPGSV,3,3,11,25,,,,26,,,,27,06,319,*42
$GLGSV,3,1,09,,,,25,70,40,299,18,80,07,139,10,69,30,011,27*5D
$GLGSV,3,2,09,84,80,289,25,83,38,160,14,85,30,329,26,71,11,253,18*66
$GLGSV,3,3,09,79,10,087,*5C
$GPGGA,010148.0,1919.109601,N,09902.246666,W,1,06,0.9,2257.1,M,0.0,M,,*45
$GNGNS,010148.0,1919.109601,N,09902.246666,W,AA,11,0.9,2257.1,0.0,,*77
$GPVTG,251.7,T,251.7,M,0.0,N,0.0,K,A*23
$GPRMC,010148.0,A,1919.109601,N,09902.246666,W,0.0,251.7,210914,0.0,E,A*1E
$GPGSA,A,2,14,15,18,21,22,29,,,,,,,1.3,0.9,0.9*31
$GNGSA,A,2,14,15,18,21,22,29,,,,,,,1.3,0.9,0.9*2F
$GNGSA,A,2,69,70,83,84,85,,,,,,,,1.3,0.9,0.9*2D
$GPGSV,3,1,11,14,29,213,21,15,35,036,21,18,46,331,33,21,57,355,32*7B
$GPGSV,3,2,11,22,26,288,23,24,30,108,12,29,41,180,20,48,,,32*48
$GPGSV,3,3,11,25,,,,26,,,,27,06,319,*42
$GLGSV,3,1,09,,,,22,70,40,299,23,80,07,139,10,69,30,011,25*50
$GLGSV,3,2,09,84,80,289,19,83,38,160,14,85,30,329,27,71,11,253,18*68
$GLGSV,3,3,09,79,10,087,*5C
$GPGGA,010149.0,1919.109637,N,09902.246697,W,1,07,0.8,2257.2,M,0.0,M,,*4C
$GNGNS,010149.0,1919.109637,N,09902.246697,W,AA,12,0.8,2257.2,0.0,,*7C
$GPVTG,251.7,T,251.7,M,0.0,N,0.0,K,A*23
$GPRMC,010149.0,A,1919.109637,N,09902.246697,W,0.0,251.7,210914,0.0,E,A*14
$GPGSA,A,2,14,15,18,21,22,24,29,,,,,,1.2,0.8,0.9*37
$GNGSA,A,2,14,15,18,21,22,24,29,,,,,,1.2,0.8,0.9*29
$GNGSA,A,2,69,70,83,84,85,,,,,,,,1.2,0.8,0.9*2D
$GPGSV,3,1,11,14,29,213,24,15,35,036,28,18,46,331,29,21,57,355,27*78
$GPGSV,3,2,11,22,26,288,18,24,30,108,12,29,41,180,20,48,,,32*40
$GPGSV,3,3,11,25,,,,26,,,,27,06,319,*42
$GLGSV,3,1,09,,,,19,70,40,299,23,80,07,139,10,69,30,011,19*57
$GLGSV,3,2,09,84,80,289,19,83,38,160,14,85,30,329,27,71,11,253,18*68
$GLGSV,3,3,09,79,10,087,*5C
$GPGGA,010150.0,1919.109709,N,09902.246831,W,1,07,0.8,2257.1,M,0.0,M,,*49
$GNGNS,010150.0,1919.109709,N,09902.246831,W,AA,12,0.8,2257.1,0.0,,*79
$GPVTG,251.7,T,251.7,M,0.0,N,0.0,K,A*23
$GPRMC,010150.0,A,1919.109709,N,09902.246831,W,0.0,251.7,210914,0.0,E,A*12
$GPGSA,A,2,14,15,18,21,22,24,29,,,,,,1.2,0.8,0.9*37
$GNGSA,A,2,14,15,18,21,22,24,29,,,,,,1.2,0.8,0.9*29
$GNGSA,A,2,69,70,83,84,85,,,,,,,,1.2,0.8,0.9*2D
$GPGSV,3,1,11,14,29,213,27,15,35,036,32,18,46,331,29,21,57,355,23*74
$GPGSV,3,2,11,22,26,288,17,24,30,108,12,29,41,180,20,48,,,32*4F
$GPGSV,3,3,11,25,,,,26,,,,27,06,319,*42
$GLGSV,3,1,09,,,,25,70,40,299,27,80,07,139,10,69,30,011,30*57
$GLGSV,3,2,09,84,80,289,19,83,38,160,14,85,30,329,28,71,11,253,18*67
$GLGSV,3,3,09,79,10,087,*5C
$GPGGA,010151.0,1919.109749,N,09902.246989,W,1,07,0.8,2257.6,M,0.0,M,,*49
$GNGNS,010151.0,1919.109749,N,09902.246989,W,AA,12,0.8,2257.6,0.0,,*79
$GPVTG,251.7,T,251.7,M,0.0,N,0.0,K,A*23
$GPRMC,010151.0,A,1919.109749,N,09902.246989,W,0.0,251.7,210914,0.0,E,A*15
$GPGSA,A,2,14,15,18,21,22,24,29,,,,,,1.2,0.8,0.9*37
$GNGSA,A,2,14,15,18,21,22,24,29,,,,,,1.2,0.8,0.9*29
$GNGSA,A,2,69,70,83,84,85,,,,,,,,1.2,0.8,0.9*2D
$GPGSV,3,1,11,14,29,213,24,15,35,036,24,18,46,331,24,21,57,355,22*7C
$GPGSV,3,2,11,22,26,288,21,24,30,108,12,29,41,180,20,48,,,30*48
$GPGSV,3,3,11,25,,,,26,,,,27,06,319,*42
$GLGSV,3,1,09,,,,21,70,40,299,26,80,07,139,10,69,30,011,18*58
$GLGSV,3,2,09,84,80,289,19,83,38,160,14,85,30,329,21,71,11,253,18*6E
$GLGSV,3,3,09,79,10,087,*5C
$GPGGA,010152.0,1919.109788,N,09902.247111,W,1,06,0.9,2257.4,M,0.0,M,,*4D
$GNGNS,010152.0,1919.109788,N,09902.247111,W,AA,11,0.9,2257.4,0.0,,*7F
$GPVTG,251.7,T,251.7,M,0.0,N,0.0,K,A*23
$GPRMC,010152.0,A,1919.109788,N,09902.247111,W,0.0,251.7,210914,0.0,E,A*13
$GPGSA,A,2,14,15,18,21,22,24,,,,,,,1.2,0.9,0.9*3D
$GNGSA,A,2,14,15,18,21,22,24,,,,,,,1.2,0.9,0.9*23
$GNGSA,A,2,69,70,83,84,85,,,,,,,,1.2,0.9,0.9*2C
$GPGSV,3,1,11,14,29,213,22,15,35,036,21,18,46,331,23,21,57,355,19*70
$GPGSV,3,2,11,22,26,288,21,24,30,108,12,29,41,180,20,48,,,30*48
$GPGSV,3,3,11,25,,,,26,,,,27,06,319,*42
$GLGSV,3,1,09,,,,20,70,40,299,25,80,07,139,10,69,30,011,18*5A
$GLGSV,3,2,09,84,80,289,19,83,38,160,14,85,30,329,19,71,11,253,18*65
$GLGSV,3,3,09,79,10,087,*5C
$GPGGA,010153.0,1919.109786,N,09902.247172,W,1,06,0.9,2257.5,M,0.0,M,,*46
$GNGNS,010153.0,1919.109786,N,09902.247172,W,AA,11,0.9,2257.5,0.0,,*74
$GPVTG,251.7,T,251.7,M,0.0,N,0.0,K,A*23
$GPRMC,010153.0,A,1919.109786,N,09902.247172,W,0.0,251.7,210914,0.0,E,A*19
$GPGSA,A,2,14,15,18,21,22,24,,,,,,,1.2,0.9,0.9*3D
$GNGSA,A,2,14,15,18,21,22,24,,,,,,,1.2,0.9,0.9*23
$GNGSA,A,2,69,70,83,84,85,,,,,,,,1.2,0.9,0.9*2C
$GPGSV,3,1,11,14,29,213,18,15,35,036,24,18,46,331,20,21,57,355,19*7F
$GPGSV,3,2,11,22,26,288,27,24,30,108,12,29,41,180,20,48,,,30*4E
$GPGSV,3,3,11,25,,,,26,,,,27,06,319,*42
$GLGSV,3,1,09,,,,17,70,40,299,27,80,07,139,10,69,30,011,18*5C
$GLGSV,3,2,09,84,80,289,19,83,38,160,14,85,30,329,20,71,11,253,18*6F
$GLGSV,3,3,09,79,10,087,*5C
$GPGGA,010154.0,1919.109808,N,09902.247197,W,1,06,1.0,2257.5,M,0.0,M,,*4B
$GNGNS,010154.0,1919.109808,N,09902.247197,W,AA,10,1.0,2257.5,0.0,,*78
$GPVTG,251.7,T,251.7,M,0.0,N,0.0,K,A*23
$GPRMC,010154.0,A,1919.109808,N,09902.247197,W,0.0,251.7,210914,0.0,E,A*1C
$GPGSA,A,2,14,15,18,21,22,24,,,,,,,1.3,1.0,0.9*34
$GNGSA,A,2,14,15,18,21,22,24,,,,,,,1.3,1.0,0.9*2A
$GNGSA,A,2,69,70,84,85,,,,,,,,,1.3,1.0,0.9*2E
$GPGSV,3,1,11,14,29,213,24,15,35,036,30,18,46,331,26,21,57,355,19*73
$GPGSV,3,2,11,22,26,288,29,24,30,108,12,29,41,180,20,48,,,30*40
$GPGSV,3,3,11,25,,,,26,,,,27,06,319,*42
$GLGSV,3,1,09,,,,20,70,40,299,34,80,07,139,10,69,30,011,18*5A
$GLGSV,3,2,09,84,80,289,19,83,38,160,14,85,30,329,17,71,11,253,18*6B
$GLGSV,3,3,09,79,10,087,*5C
$GPGGA,010155.0,1919.109745,N,09902.247105,W,1,06,1.0,2257.2,M,0.0,M,,*40
$GNGNS,010155.0,1919.109745,N,09902.247105,W,AA,10,1.0,2257.2,0.0,,*73
$GPVTG,251.7,T,251.7,M,0.0,N,0.0,K,A*23
$GPRMC,010155.0,A,1919.109745,N,09902.247105,W,0.0,251.7,210914,0.0,E,A*10
$GPGSA,A,2,14,15,18,21,22,24,,,,,,,1.3,1.0,0.9*34
$GNGSA,A,2,14,15,18,21,22,24,,,,,,,1.3,1.0,0.9*2A
$GNGSA,A,2,69,70,84,85,,,,,,,,,1.3,1.0,0.9*2E
$GPGSV,3,1,11,14,29,213,28,15,35,036,27,18,46,331,27,21,57,355,17*76
$GPGSV,3,2,11,22,26,288,27,24,30,108,12,29,41,180,20,48,,,35*4B
$GPGSV,3,3,11,25,,,,26,,,,27,06,319,*42
$GLGSV,3,1,09,,,,29,70,40,299,28,80,07,139,10,69,30,011,25*50
$GLGSV,3,2,09,84,80,289,19,83,38,160,14,85,30,329,27,71,11,253,18*68
$GLGSV,3,3,09,79,10,087,*5C
$GPGGA,010156.0,1919.109657,N,09902.247073,W,1,05,1.4,2257.3,M,0.0,M,,*47
$GNGNS,010156.0,1919.109657,N,09902.247073,W,AA,08,1.4,2257.3,0.0,,*7E
$GPVTG,251.7,T,251.7,M,0.0,N,0.0,K,A*23
$GPRMC,010156.0,A,1919.109657,N,09902.247073,W,0.0,251.7,210914,0.0,E,A*11
$GPGSA,A,2,14,15,18,21,22,,,,,,,,1.7,1.4,1.0*3A
$GNGSA,A,2,14,15,18,21,22,,,,,,,,1.7,1.4,1.0*24
$GNGSA,A,2,69,70,85,,,,,,,,,,1.7,1.4,1.0*2A
$GPGSV,3,1,11,14,29,213,18,15,35,036,25,18,46,331,25,21,57,355,18*7A
$GPGSV,3,2,11,22,26,288,29,24,30,108,12,48,,,37,25,,,*75
$GPGSV,3,3,11,26,,,,27,06,319,,29,41,180,*72
$GLGSV,3,1,09,,,,26,70,40,299,23,69,30,011,26,84,80,289,19*5D
$GLGSV,3,2,09,83,38,160,12,85,30,329,30,71,11,253,18,,07,139,*6B
$GLGSV,3,3,09,79,10,087,*5C
$GPGGA,010157.0,1919.109618,N,09902.247052,W,1,05,1.0,2257.3,M,0.0,M,,*4A
$GNGNS,010157.0,1919.109618,N,09902.247052,W,AA,09,1.0,2257.3,0.0,,*72
$GPVTG,251.7,T,251.7,M,0.0,N,0.0,K,A*23
$GPRMC,010157.0,A,1919.109618,N,09902.247052,W,0.0,251.7,210914,0.0,E,A*18
$GPGSA,A,2,14,15,18,21,22,,,,,,,,1.4,1.0,0.9*35
$GNGSA,A,2,14,15,18,21,22,,,,,,,,1.4,1.0,0.9*2B
$GNGSA,A,2,69,70,83,85,,,,,,,,,1.4,1.0,0.9*2E
$GPGSV,3,1,11,14,29,213,20,15,35,036,27,18,46,331,27,21,57,355,23*79
$GPGSV,3,2,11,22,26,288,24,24,30,108,12,48,,,32,25,,,*7D
$GPGSV,3,3,11,26,,,,27,06,319,,29,41,180,*72
$GLGSV,3,1,09,,,,28,70,40,299,31,69,30,011,23,84,80,289,19*55
$GLGSV,3,2,09,83,38,160,19,85,30,329,24,71,11,253,18,80,07,139,*6D
$GLGSV,3,3,09,79,10,087,*5C
$GPGGA,010158.0,1919.109549,N,09902.247002,W,1,05,1.0,2257.4,M,0.0,M,,*40
$GNGNS,010158.0,1919.109549,N,09902.247002,W,AA,09,1.0,2257.4,0.0,,*78
$GPVTG,251.7,T,251.7,M,0.0,N,0.0,K,A*23
$GPRMC,010158.0,A,1919.109549,N,09902.247002,W,0.0,251.7,210914,0.0,E,A*15
$GPGSA,A,2,14,15,18,21,22,,,,,,,,1.4,1.0,0.9*35
$GNGSA,A,2,14,15,18,21,22,,,,,,,,1.4,1.0,0.9*2B
$GNGSA,A,2,69,70,83,85,,,,,,,,,1.4,1.0,0.9*2E
$GPGSV,3,1,11,14,29,213,20,15,35,036,27,18,46,331,22,21,57,355,25*7A
$GPGSV,3,2,11,22,26,288,24,24,30,108,12,48,,,32,25,,,*7D
$GPGSV,3,3,11,26,,,,27,06,319,,29,41,180,*72
$GLGSV,3,1,09,,,,25,70,40,299,26,69,30,011,23,84,80,289,19*5E
$GLGSV,3,2,09,83,38,160,19,85,30,329,20,71,11,253,18,80,07,139,*69
$GLGSV,3,3,09,79,10,087,*5C
$GPGGA,010159.0,1919.109515,N,09902.246979,W,1,05,1.0,2257.5,M,0.0,M,,*4D
$GNGNS,010159.0,1919.109515,N,09902.246979,W,AA,09,1.0,2257.5,0.0,,*75
$GPVTG,251.7,T,251.7,M,0.0,N,0.0,K,A*23
$GPRMC,010159.0,A,1919.109515,N,09902.246979,W,0.0,251.7,210914,0.0,E,A*19
$GPGSA,A,2,14,15,18,21,22,,,,,,,,1.4,1.0,0.9*35
$GNGSA,A,2,14,15,18,21,22,,,,,,,,1.4,1.0,0.9*2B
$GNGSA,A,2,69,70,83,85,,,,,,,,,1.4,1.0,0.9*2E
$GPGSV,3,1,11,14,29,213,24,15,35,036,23,18,46,331,22,21,57,355,24*7B
$GPGSV,3,2,11,22,26,288,18,24,30,108,13,48,,,32,25,,,*73
$GPGSV,3,3,11,26,,,,27,06,319,,29,41,180,*72
$GLGSV,3,1,09,,,,29,70,40,299,24,69,30,011,21,84,80,289,19*52
$GLGSV,3,2,09,83,38,160,16,85,30,329,21,71,11,253,18,80,07,139,*67
$GLGSV,3,3,09,79,10,087,*5C
$GPGGA,010200.0,1919.109437,N,09902.246918,W,1,06,0.9,2257.5,M,0.0,M,,*4F
$GNGNS,010200.0,1919.109437,N,09902.246918,W,AA,10,0.9,2257.5,0.0,,*7C
$GPVTG,251.7,T,251.7,M,0.0,N,0.0,K,A*23
$GPRMC,010200.0,A,1919.109437,N,09902.246918,W,0.0,251.7,210914,0.0,E,A*10
$GPGSA,A,2,14,15,18,21,22,24,,,,,,,1.3,0.9,0.9*3C
$GNGSA,A,2,14,15,18,21,22,24,,,,,,,1.3,0.9,0.9*22
$GNGSA,A,2,69,70,83,85,,,,,,,,,1.3,0.9,0.9*21
$GPGSV,3,1,11,14,29,213,24,15,35,036,18,18,46,331,23,21,57,355,22*74
$GPGSV,3,2,11,22,26,288,18,24,30,108,13,48,,,32,25,,,*73
$GPGSV,3,3,11,26,,,,27,06,319,,29,41,180,*72
$GLGSV,3,1,09,,,,25,70,40,299,19,69,30,011,21,84,80,289,19*50
$GLGSV,3,2,09,83,38,160,18,85,30,329,19,71,11,253,18,80,07,139,*62
$GLGSV,3,3,09,79,10,087,*5C
$GPGGA,010201.0,1919.109402,N,09902.246892,W,1,06,0.9,2257.5,M,0.0,M,,*4B
$GNGNS,010201.0,1919.109402,N,09902.246892,W,AA,10,0.9,2257.5,0.0,,*78
$GPVTG,251.7,T,251.7,M,0.0,N,0.0,K,A*23
$GPRMC,010201.0,A,1919.109402,N,09902.246892,W,0.0,251.7,210914,0.0,E,A*14
$GPGSA,A,2,14,15,18,21,22,24,,,,,,,1.3,0.9,0.9*3C
$GNGSA,A,2,14,15,18,21,22,24,,,,,,,1.3,0.9,0.9*22
$GNGSA,A,2,69,70,83,85,,,,,,,,,1.3,0.9,0.9*21
$GPGSV,3,1,11,14,29,213,26,15,35,036,18,18,46,331,17,21,57,355,22*71
$GPGSV,3,2,11,24,30,108,13,48,,,32,22,26,288,,25,,,*7A
$GPGSV,3,3,11,26,,,,27,06,319,,29,41,180,*72
$GLGSV,3,1,09,,,,24,70,40,299,18,69,30,011,19,84,80,289,19*5B
$GLGSV,3,2,09,83,38,160,16,85,30,329,19,80,07,139,,79,10,087,*67
$GLGSV,3,3,09,,11,253,*58
$GPGGA,010202.0,1919.109385,N,09902.246880,W,1,06,0.9,2257.5,M,0.0,M,,*43
$GNGNS,010202.0,1919.109385,N,09902.246880,W,AA,10,0.9,2257.5,0.0,,*70
$GPVTG,251.7,T,251.7,M,0.0,N,0.0,K,A*23
$GPRMC,010202.0,A,1919.109385,N,09902.246880,W,0.0,251.7,210914,0.0,E,A*1C
$GPGSA,A,2,14,15,18,21,22,24,,,,,,,1.3,0.9,0.9*3C
$GNGSA,A,2,14,15,18,21,22,24,,,,,,,1.3,0.9,0.9*22
$GNGSA,A,2,69,70,83,85,,,,,,,,,1.3,0.9,0.9*21
$GPGSV,3,1,11,14,29,213,29,15,35,036,16,18,46,331,22,21,57,355,18*7F
$GPGSV,3,2,11,24,30,108,13,48,,,32,22,26,288,,25,,,*7A
$GPGSV,3,3,11,26,,,,27,06,319,,29,41,180,*72
$GLGSV,3,1,09,,,,28,70,40,299,21,69,30,011,19,84,80,289,19*5D
$GLGSV,3,2,09,83,38,160,16,85,30,329,19,80,07,139,,79,10,087,*67
$GLGSV,3,3,09,71,11,253,*5E
$GPGGA,010203.0,1919.109375,N,09902.246872,W,1,06,0.9,2257.5,M,0.0,M,,*40
$GNGNS,010203.0,1919.109375,N,09902.246872,W,AA,10,0.9,2257.5,0.0,,*73
$GPVTG,251.7,T,251.7,M,0.0,N,0.0,K,A*23
$GPRMC,010203.0,A,1919.109375,N,09902.246872,W,0.0,251.7,210914,0.0,E,A*1F
$GPGSA,A,2,14,15,18,21,22,24,,,,,,,1.3,0.9,0.9*3C
$GNGSA,A,2,14,15,18,21,22,24,,,,,,,1.3,0.9,0.9*22
$GNGSA,A,2,69,70,83,85,,,,,,,,,1.3,0.9,0.9*21
$GPGSV,3,1,11,14,29,213,21,15,35,036,20,18,46,331,21,21,57,355,20*7A
$GPGSV,3,2,11,24,30,108,13,29,41,180,16,48,,,32,22,26,288,*4D
$GPGSV,3,3,11,25,,,,26,,,,27,06,319,*42
$GLGSV,3,1,09,,,,23,70,40,299,22,69,30,011,20,84,80,289,19*5F
$GLGSV,3,2,09,83,38,160,15,85,30,329,19,80,07,139,,79,10,087,*64
$GLGSV,3,3,09,71,11,253,*5E
$GPGGA,010204.0,1919.109364,N,09902.246864,W,1,07,0.8,2257.5,M,0.0,M,,*40
$GNGNS,010204.0,1919.109364,N,09902.246864,W,AA,11,0.8,2257.5,0.0,,*73
$GPVTG,251.7,T,251.7,M,0.0,N,0.0,K,A*23
$GPRMC,010204.0,A,1919.109364,N,09902.246864,W,0.0,251.7,210914,0.0,E,A*1F
$GPGSA,A,2,14,15,18,21,22,24,29,,,,,,1.2,0.8,0.9*37
$GNGSA,A,2,14,15,18,21,22,24,29,,,,,,1.2,0.8,0.9*29
$GNGSA,A,2,69,70,83,85,,,,,,,,,1.2,0.8,0.9*21
$GPGSV,3,1,11,14,29,213,21,15,35,036,20,18,46,331,21,21,57,355,21*7B
$GPGSV,3,2,11,24,30,108,13,29,41,180,15,48,,,32,22,26,288,*4E
$GPGSV,3,3,11,25,,,,26,,,,27,06,319,*42
$GLGSV,3,1,09,,,,24,70,40,299,18,69,30,011,18,84,80,289,19*5A
$GLGSV,3,2,09,83,38,160,15,85,30,329,13,80,07,139,,79,10,087,*6E
$GLGSV,3,3,09,71,11,253,*5E
$GPGGA,010205.0,1919.109358,N,09902.246859,W,1,07,0.8,2257.4,M,0.0,M,,*41
$GNGNS,010205.0,1919.109358,N,09902.246859,W,AA,11,0.8,2257.4,0.0,,*72
$GPVTG,251.7,T,251.7,M,0.0,N,0.0,K,A*23
$GPRMC,010205.0,A,1919.109358,N,09902.246859,W,0.0,251.7,210914,0.0,E,A*1F
$GPGSA,A,2,14,15,18,21,22,24,29,,,,,,1.2,0.8,0.9*37
$GNGSA,A,2,14,15,18,21,22,24,29,,,,,,1.2,0.8,0.9*29
$GNGSA,A,2,69,70,83,85,,,,,,,,,1.2,0.8,0.9*21
$GPGSV,3,1,11,14,29,213,24,15,35,036,16,18,46,331,18,21,57,355,23*73
$GPGSV,3,2,11,22,26,288,18,24,30,108,13,29,41,180,15,48,,,32*47
$GPGSV,3,3,11,25,,,,26,,,,27,06,319,*42
$GLGSV,3,1,09,,,,24,70,40,299,17,69,30,011,18,84,80,289,19*55
$GLGSV,3,2,09,83,38,160,15,85,30,329,13,80,07,139,,79,10,087,*6E
$GLGSV,3,3,09,71,11,253,*5E
$GPGGA,010206.0,1919.109357,N,09902.246859,W,1,07,0.8,2257.4,M,0.0,M,,*4D
$GNGNS,010206.0,1919.109357,N,09902.246859,W,AA,11,0.8,2257.4,0.0,,*7E
$GPVTG,251.7,T,251.7,M,0.0,N,0.0,K,A*23
$GPRMC,010206.0,A,1919.109357,N,09902.246859,W,0.0,251.7,210914,0.0,E,A*13
$GPGSA,A,2,14,15,18,21,22,24,29,,,,,,1.2,0.8,0.9*37
$GNGSA,A,2,14,15,18,21,22,24,29,,,,,,1.2,0.8,0.9*29
$GNGSA,A,2,69,70,83,85,,,,,,,,,1.2,0.8,0.9*21
$GPGSV,3,1,11,14,29,213,28,15,35,036,21,18,46,331,22,21,57,355,27*76
$GPGSV,3,2,11,22,26,288,18,24,30,108,13,29,41,180,17,48,,,32*45
$GPGSV,3,3,11,25,,,,26,,,,27,06,319,*42
$GLGSV,3,1,09,,,,29,70,40,299,19,69,30,011,17,84,80,289,19*59
$GLGSV,3,2,09,83,38,160,25,85,30,329,13,80,07,139,,79,10,087,*6D
$GLGSV,3,3,09,71,11,253,*5E
$GPGGA,010207.0,1919.109350,N,09902.246854,W,1,06,0.9,2257.4,M,0.0,M,,*46
$GNGNS,010207.0,1919.109350,N,09902.246854,W,AA,10,0.9,2257.4,0.0,,*75
$GPVTG,251.7,T,251.7,M,0.0,N,0.0,K,A*23
$GPRMC,010207.0,A,1919.109350,N,09902.246854,W,0.0,251.7,210914,0.0,E,A*18
$GPGSA,A,2,14,15,18,21,22,29,,,,,,,1.3,0.9,0.9*31
$GNGSA,A,2,14,15,18,21,22,29,,,,,,,1.3,0.9,0.9*2F
$GNGSA,A,2,69,70,83,85,,,,,,,,,1.3,0.9,0.9*21
$GPGSV,3,1,11,14,29,213,29,15,35,036,24,18,46,331,19,21,57,355,20*7D
$GPGSV,3,2,11,22,26,288,19,24,30,108,13,29,41,180,26,48,,,32*46
$GPGSV,3,3,11,25,,,,26,,,,27,06,319,*42
$GLGSV,3,1,09,,,,26,70,40,299,23,69,30,011,22,84,80,289,19*59
$GLGSV,3,2,09,83,38,160,23,85,30,329,14,71,11,253,15,80,07,139,*6A
$GLGSV,3,3,09,79,10,087,*5C
$GPGGA,010208.0,1919.109340,N,09902.246850,W,1,06,0.9,2257.4,M,0.0,M,,*4C
$GNGNS,010208.0,1919.109340,N,09902.246850,W,AA,11,0.9,2257.4,0.0,,*7E
$GPVTG,251.7,T,251.7,M,0.0,N,0.0,K,A*23
$GPRMC,010208.0,A,1919.109340,N,09902.246850,W,0.0,251.7,210914,0.0,E,A*12
$GPGSA,A,2,14,15,18,21,22,29,,,,,,,1.3,0.9,0.9*31
$GNGSA,A,2,14,15,18,21,22,29,,,,,,,1.3,0.9,0.9*2F
$GNGSA,A,2,69,70,71,83,85,,,,,,,,1.3,0.9,0.9*27
$GPGSV,3,1,11,14,29,213,32,15,35,036,21,18,46,331,21,21,57,355,25*7C
$GPGSV,3,2,11,22,26,288,23,24,30,108,13,29,41,180,32,48,,,33*4B
$GPGSV,3,3,11,25,,,,26,,,,27,06,319,*42
$GLGSV,3,1,09,,,,29,70,40,299,26,69,30,011,23,84,80,289,19*52
$GLGSV,3,2,09,83,38,160,26,85,30,329,19,71,11,253,16,80,07,139,*61
$GLGSV,3,3,09,79,10,087,*5C
$GPGGA,010209.0,1919.109154,N,09902.247077,W,1,06,0.9,2257.1,M,0.0,M,,*43
$GNGNS,010209.0,1919.109154,N,09902.247077,W,AA,11,0.9,2257.1,0.0,,*71
$GPVTG,251.7,T,251.7,M,1.1,N,2.0,K,A*21
$GPRMC,010209.0,A,1919.109154,N,09902.247077,W,1.1,251.7,210914,0.0,E,A*18
$GPGSA,A,2,14,15,18,21,22,29,,,,,,,1.3,0.9,0.9*31
$GNGSA,A,2,14,15,18,21,22,29,,,,,,,1.3,0.9,0.9*2F
$GNGSA,A,2,69,70,71,83,85,,,,,,,,1.3,0.9,0.9*27
$GPGSV,3,1,11,14,29,213,31,15,35,036,23,18,46,331,20,21,57,355,24*7D
$GPGSV,3,2,11,22,26,288,22,24,30,108,13,29,41,180,36,48,,,32*4F
$GPGSV,3,3,11,25,,,,26,,,,27,06,319,*42
$GLGSV,3,1,09,,,,24,70,40,299,21,69,30,011,18,84,80,289,19*50
$GLGSV,3,2,09,83,38,160,27,85,30,329,17,71,11,253,15,80,07,139,*6D
$GLGSV,3,3,09,79,10,087,*5C
$GPGGA,010210.0,1919.108258,N,09902.247524,W,1,06,0.9,2257.4,M,0.0,M,,*43
$GNGNS,010210.0,1919.108258,N,09902.247524,W,AA,11,0.9,2257.4,0.0,,*71
$GPVTG,208.7,T,208.7,M,1.5,N,2.8,K,A*2D
$GPRMC,010210.0,A,1919.108258,N,09902.247524,W,1.5,208.7,210914,0.0,E,A*15
$GPGSA,A,2,14,15,18,21,22,29,,,,,,,1.3,0.9,0.9*31
$GNGSA,A,2,14,15,18,21,22,29,,,,,,,1.3,0.9,0.9*2F
$GNGSA,A,2,69,70,71,83,85,,,,,,,,1.3,0.9,0.9*27
$GPGSV,3,1,11,14,29,213,36,15,35,036,22,18,46,331,23,21,57,355,23*7F
$GPGSV,3,2,11,22,26,288,27,24,30,108,13,29,41,180,40,48,,,34*4D
$GPGSV,3,3,11,25,,,,26,,,,27,06,319,*42
$GLGSV,3,1,09,,,,26,70,40,299,20,69,30,011,20,84,80,289,19*58
$GLGSV,3,2,09,83,38,160,32,85,30,329,21,71,11,253,15,80,07,139,*6C
$GLGSV,3,3,09,79,10,087,*5C
$GPGGA,010211.0,1919.107228,N,09902.247732,W,1,06,0.9,2257.4,M,0.0,M,,*4F
$GNGNS,010211.0,1919.107228,N,09902.247732,W,AA,11,0.9,2257.4,0.0,,*7D
$GPVTG,206.0,T,206.0,M,1.8,N,3.3,K,A*2A
$GPRMC,010211.0,A,1919.107228,N,09902.247732,W,1.8,206.0,210914,0.0,E,A*1D
$GPGSA,A,2,14,15,18,21,22,29,,,,,,,1.3,0.9,0.9*31
$GNGSA,A,2,14,15,18,21,22,29,,,,,,,1.3,0.9,0.9*2F
$GNGSA,A,2,69,70,71,83,85,,,,,,,,1.3,0.9,0.9*27
$GPGSV,3,1,11,14,29,213,36,15,35,036,26,18,46,331,21,21,57,355,20*7A
$GPGSV,3,2,11,22,26,288,21,24,30,108,13,29,41,180,36,48,,,31*4F
$GPGSV,3,3,11,25,,,,26,,,,27,06,319,*42
$GLGSV,2,1,08,,,,19,70,40,299,19,69,30,011,21,83,38,160,27*52
$GLGSV,2,2,08,85,30,329,21,71,11,253,15,80,07,139,,79,10,087,*6A
$GPGGA,010212.0,1919.105968,N,09902.248132,W,1,06,0.9,2258.3,M,0.0,M,,*40
$GNGNS,010212.0,1919.105968,N,09902.248132,W,AA,11,0.9,2258.3,0.0,,*72
$GPVTG,202.8,T,202.8,M,2.7,N,5.0,K,A*23
$GPRMC,010212.0,A,1919.105968,N,09902.248132,W,2.7,202.8,210914,0.0,E,A*1A
$GPGSA,A,2,14,15,18,21,22,29,,,,,,,1.3,0.9,0.9*31
$GNGSA,A,2,14,15,18,21,22,29,,,,,,,1.3,0.9,0.9*2F
$GNGSA,A,2,69,70,71,83,85,,,,,,,,1.3,0.9,0.9*27
$GPGSV,3,1,11,14,29,213,37,15,35,036,25,18,46,331,21,21,57,355,21*79
$GPGSV,3,2,11,22,26,288,19,24,30,108,13,29,41,180,37,48,,,32*46
$GPGSV,3,3,11,25,,,,26,,,,27,06,319,*42
$GLGSV,3,1,09,,,,19,70,40,299,23,69,30,011,26,84,80,289,22*59
$GLGSV,3,2,09,83,38,160,28,85,30,329,20,71,11,253,14,80,07,139,*67
$GLGSV,3,3,09,79,10,087,*5C
$GPGGA,010213.0,1919.104596,N,09902.248654,W,1,06,0.9,2259.7,M,0.0,M,,*4F
$GNGNS,010213.0,1919.104596,N,09902.248654,W,AA,12,0.9,2259.7,0.0,,*7E
$GPVTG,202.5,T,202.5,M,3.0,N,5.5,K,A*20
$GPRMC,010213.0,A,1919.104596,N,09902.248654,W,3.0,202.5,210914,0.0,E,A*1B
$GPGSA,A,2,14,15,18,21,22,29,,,,,,,1.2,0.9,0.9*30
$GNGSA,A,2,14,15,18,21,22,29,,,,,,,1.2,0.9,0.9*2E
$GNGSA,A,2,69,70,71,83,84,85,,,,,,,1.2,0.9,0.9*2A
$GPGSV,3,1,11,14,29,213,39,15,35,036,26,21,57,355,22,22,26,288,23*79
$GPGSV,3,2,11,24,30,108,19,29,41,180,37,48,,,35,18,46,331,*4F
$GPGSV,3,3,11,25,,,,26,,,,27,06,319,*42
$GLGSV,3,1,09,,,,23,70,40,299,27,69,30,011,28,84,80,289,26*5E
$GLGSV,3,2,09,83,38,160,26,85,30,329,18,71,11,253,15,80,07,139,*63
$GLGSV,3,3,09,79,10,087,*5C
$GPGGA,010214.0,1919.103104,N,09902.249120,W,1,06,0.9,2260.2,M,0.0,M,,*4A
$GNGNS,010214.0,1919.103104,N,09902.249120,W,AA,12,0.9,2260.2,0.0,,*7B
$GPVTG,202.4,T,202.4,M,3.1,N,5.7,K,A*23
$GPRMC,010214.0,A,1919.103104,N,09902.249120,W,3.1,202.4,210914,0.0,E,A*11
$GPGSA,A,2,14,15,18,21,22,29,,,,,,,1.2,0.9,0.9*30
$GNGSA,A,2,14,15,18,21,22,29,,,,,,,1.2,0.9,0.9*2E
$GNGSA,A,2,69,70,71,83,84,85,,,,,,,1.2,0.9,0.9*2A
$GPGSV,3,1,11,14,29,213,39,15,35,036,27,21,57,355,23,22,26,288,19*70
$GPGSV,3,2,11,24,30,108,21,29,41,180,38,48,,,34,18,46,331,*4A
$GPGSV,3,3,11,25,,,,26,,,,27,06,319,*42
$GLGSV,3,1,09,,,,26,70,40,299,24,69,30,011,29,84,80,289,24*5B
$GLGSV,3,2,09,83,38,160,23,85,30,329,19,71,11,253,15,80,07,139,*67
$GLGSV,3,3,09,79,10,087,*5C
$GPGGA,010215.0,1919.101606,N,09902.249655,W,1,07,0.8,2259.8,M,0.0,M,,*49
$GNGNS,010215.0,1919.101606,N,09902.249655,W,AA,13,0.8,2259.8,0.0,,*78
$GPVTG,203.0,T,203.0,M,3.2,N,5.9,K,A*2E
$GPRMC,010215.0,A,1919.101606,N,09902.249655,W,3.2,203.0,210914,0.0,E,A*14
$GPGSA,A,2,14,15,18,21,22,24,29,,,,,,1.1,0.8,0.8*35
$GNGSA,A,2,14,15,18,21,22,24,29,,,,,,1.1,0.8,0.8*2B
$GNGSA,A,2,69,70,71,83,84,85,,,,,,,1.1,0.8,0.8*29
$GPGSV,3,1,11,14,29,213,39,15,35,036,25,18,46,331,29,21,57,355,21*7F
$GPGSV,3,2,11,22,26,288,20,24,30,108,20,29,41,180,39,48,,,36*46
$GPGSV,3,3,11,25,,,,26,,,,27,06,319,*42
$GLGSV,3,1,09,,,,28,70,40,299,22,69,30,011,26,84,80,289,24*5C
$GLGSV,3,2,09,83,38,160,22,85,30,329,21,71,11,253,15,80,07,139,*6D
$GLGSV,3,3,09,79,10,087,*5C
$GPGGA,010216.0,1919.099980,N,09902.250214,W,1,07,0.8,2259.8,M,0.0,M,,*42
$GNGNS,010216.0,1919.099980,N,09902.250214,W,AA,12,0.8,2259.8,0.0,,*72
$GPVTG,202.8,T,202.8,M,3.3,N,6.2,K,A*27
$GPRMC,010216.0,A,1919.099980,N,09902.250214,W,3.3,202.8,210914,0.0,E,A*17
$GPGSA,A,2,14,15,18,21,22,24,29,,,,,,1.2,0.8,0.9*37
$GNGSA,A,2,14,15,18,21,22,24,29,,,,,,1.2,0.8,0.9*29
$GNGSA,A,2,69,70,83,84,85,,,,,,,,1.2,0.8,0.9*2D
$GPGSV,3,1,11,14,29,213,39,15,35,036,24,18,46,331,23,21,57,355,24*71
$GPGSV,3,2,11,24,30,108,20,29,41,180,38,48,,,38,22,26,288,*4B
$GPGSV,3,3,11,25,,,,26,,,,27,06,319,*42
$GLGSV,3,1,09,,,,30,70,40,299,22,69,30,011,24,84,80,289,26*55
$GLGSV,3,2,09,83,38,160,34,85,30,329,22,71,11,253,17,80,07,139,*6B
$GLGSV,3,3,09,79,10,087,*5C
$GPGGA,010217.0,1919.098422,N,09902.250706,W,1,07,0.8,2259.7,M,0.0,M,,*4E
$GNGNS,010217.0,1919.098422,N,09902.250706,W,AA,12,0.8,2259.7,0.0,,*7E
$GPVTG,202.0,T,202.0,M,3.5,N,6.4,K,A*27
$GPRMC,010217.0,A,1919.098422,N,09902.250706,W,3.5,202.0,210914,0.0,E,A*1A
$GPGSA,A,2,14,15,18,21,22,24,29,,,,,,1.2,0.8,0.9*37
$GNGSA,A,2,14,15,18,21,22,24,29,,,,,,1.2,0.8,0.9*29
$GNGSA,A,2,69,70,83,84,85,,,,,,,,1.2,0.8,0.9*2D
$GPGSV,3,1,11,14,29,213,39,21,57,355,29,24,30,108,23,29,41,180,38*77
$GPGSV,3,2,11,48,,,38,15,35,036,,18,46,331,,22,26,288,*44
$GPGSV,3,3,11,25,,,,26,,,,27,06,319,*42
$GLGSV,3,1,09,,,,31,70,40,299,22,69,30,011,23,84,80,289,24*51
$GLGSV,3,2,09,83,38,160,33,85,30,329,19,71,11,253,18,80,07,139,*6B
$GLGSV,3,3,09,79,10,087,*5C
$GPGGA,010218.0,1919.096912,N,09902.251230,W,1,07,0.8,2261.3,M,0.0,M,,*4F
$GNGNS,010218.0,1919.096912,N,09902.251230,W,AA,12,0.8,2261.3,0.0,,*7F
$GPVTG,201.2,T,201.2,M,3.5,N,6.5,K,A*26
$GPRMC,010218.0,A,1919.096912,N,09902.251230,W,3.5,201.2,210914,0.0,E,A*15
$GPGSA,A,2,14,15,18,21,22,24,29,,,,,,1.2,0.8,0.9*37
$GNGSA,A,2,14,15,18,21,22,24,29,,,,,,1.2,0.8,0.9*29
$GNGSA,A,2,69,70,83,84,85,,,,,,,,1.2,0.8,0.9*2D
$GPGSV,3,1,11,14,29,213,39,21,57,355,25,24,30,108,23,29,41,180,37*74
$GPGSV,3,2,11,48,,,40,15,35,036,,18,46,331,,22,26,288,*4B
$GPGSV,3,3,11,25,,,,26,,,,27,06,319,*42
$GLGSV,3,1,09,,,,30,70,40,299,25,69,30,011,28,84,80,289,25*5D
$GLGSV,3,2,09,83,38,160,34,85,30,329,19,71,11,253,19,80,07,139,*6D
$GLGSV,3,3,09,79,10,087,*5C
$GPGGA,010219.0,1919.095449,N,09902.251699,W,1,07,0.8,2261.9,M,0.0,M,,*43
$GNGNS,010219.0,1919.095449,N,09902.251699,W,AA,12,0.8,2261.9,0.0,,*73
$GPVTG,201.4,T,201.4,M,3.5,N,6.5,K,A*26
$GPRMC,010219.0,A,1919.095449,N,09902.251699,W,3.5,201.4,210914,0.0,E,A*15
$GPGSA,A,2,14,15,18,21,22,24,29,,,,,,1.2,0.8,0.9*37
$GNGSA,A,2,14,15,18,21,22,24,29,,,,,,1.2,0.8,0.9*29
$GNGSA,A,2,69,70,83,84,85,,,,,,,,1.2,0.8,0.9*2D
$GPGSV,3,1,11,14,29,213,39,21,57,355,22,24,30,108,21,29,41,180,27*70
$GPGSV,3,2,11,48,,,40,15,35,036,,18,46,331,,22,26,288,*4B
$GPGSV,3,3,11,25,,,,26,,,,27,06,319,*42
$GLGSV,3,1,09,,,,29,70,40,299,20,69,30,011,25,84,80,289,25*5D
$GLGSV,3,2,09,83,38,160,23,85,30,329,23,71,11,253,26,80,07,139,*6E
$GLGSV,3,3,09,79,10,087,*5C
$GPGGA,010220.0,1919.094154,N,09902.252380,W,1,07,0.8,2264.5,M,0.0,M,,*46
$GNGNS,010220.0,1919.094154,N,09902.252380,W,AA,13,0.8,2264.5,0.0,,*77
$GPVTG,207.7,T,207.7,M,3.5,N,6.6,K,A*25
$GPRMC,010220.0,A,1919.094154,N,09902.252380,W,3.5,207.7,210914,0.0,E,A*1C
$GPGSA,A,2,14,15,18,21,22,24,29,,,,,,1.1,0.8,0.8*35
$GNGSA,A,2,14,15,18,21,22,24,29,,,,,,1.1,0.8,0.8*2B
$GNGSA,A,2,69,70,71,83,84,85,,,,,,,1.1,0.8,0.8*29
$GPGSV,3,1,11,14,29,213,38,15,35,036,23,21,57,355,21,24,30,108,22*75
$GPGSV,3,2,11,29,41,180,27,48,,,37,18,46,331,,22,26,288,*4E
$GPGSV,3,3,11,25,,,,26,,,,27,06,319,*42
$GLGSV,3,1,09,,,,31,70,40,299,25,69,30,011,23,84,80,289,25*57
$GLGSV,3,2,09,83,38,160,21,85,30,329,24,71,11,253,26,80,07,139,*6B
$GLGSV,3,3,09,79,10,087,*5C
$GPGGA,010221.0,1919.093163,N,09902.253305,W,1,06,0.8,2265.7,M,0.0,M,,*4A
$GNGNS,010221.0,1919.093163,N,09902.253305,W,AA,12,0.8,2265.7,0.0,,*7B
$GPVTG,219.0,T,219.0,M,3.6,N,6.6,K,A*26
$GPRMC,010221.0,A,1919.093163,N,09902.253305,W,3.6,219.0,210914,0.0,E,A*19
$GPGSA,A,2,14,15,18,21,24,29,,,,,,,1.2,0.8,0.9*37
$GNGSA,A,2,14,15,18,21,24,29,,,,,,,1.2,0.8,0.9*29
$GNGSA,A,2,69,70,71,83,84,85,,,,,,,1.2,0.8,0.9*2B
$GPGSV,3,1,11,14,29,213,38,15,35,036,21,18,46,331,25,21,57,355,18*7C
$GPGSV,3,2,11,24,30,108,30,29,41,180,28,48,,,36,22,26,288,*45
$GPGSV,3,3,11,25,,,,26,,,,27,06,319,*42
$GLGSV,3,1,09,,,,32,70,40,299,23,69,30,011,27,84,80,289,27*54
$GLGSV,3,2,09,83,38,160,20,85,30,329,24,71,11,253,28,80,07,139,*64
$GLGSV,3,3,09,79,10,087,*5C
$GPGGA,010222.0,1919.092135,N,09902.254328,W,1,06,0.8,2267.2,M,0.0,M,,*44
$GNGNS,010222.0,1919.092135,N,09902.254328,W,AA,12,0.8,2267.2,0.0,,*75
$GPVTG,223.0,T,223.0,M,3.5,N,6.4,K,A*27
$GPRMC,010222.0,A,1919.092135,N,09902.254328,W,3.5,223.0,210914,0.0,E,A*1A
$GPGSA,A,2,14,15,18,21,24,29,,,,,,,1.2,0.8,0.9*37
$GNGSA,A,2,14,15,18,21,24,29,,,,,,,1.2,0.8,0.9*29
$GNGSA,A,2,69,70,71,83,84,85,,,,,,,1.2,0.8,0.9*2B
$GPGSV,3,1,11,14,29,213,36,15,35,036,30,18,46,331,23,21,57,355,21*7E
$GPGSV,3,2,11,22,26,288,34,24,30,108,22,29,41,180,25,48,,,40*4D
$GPGSV,3,3,11,25,,,,26,,,,27,06,319,*42
$GLGSV,3,1,09,,,,30,70,40,299,27,69,30,011,24,84,80,289,27*51
$GLGSV,3,2,09,83,38,160,22,85,30,329,20,71,11,253,30,80,07,139,*6B
$GLGSV,3,3,09,79,10,087,*5C
$GPGGA,010223.0,1919.091035,N,09902.255253,W,1,07,0.8,2268.3,M,0.0,M,,*44
$GNGNS,010223.0,1919.091035,N,09902.255253,W,AA,13,0.8,2268.3,0.0,,*75
$GPVTG,221.3,T,221.3,M,3.4,N,6.3,K,A*21
$GPRMC,010223.0,A,1919.091035,N,09902.255253,W,3.4,221.3,210914,0.0,E,A*15
$GPGSA,A,2,14,15,18,21,22,24,29,,,,,,1.1,0.8,0.8*35
$GNGSA,A,2,14,15,18,21,22,24,29,,,,,,1.1,0.8,0.8*2B
$GNGSA,A,2,69,70,71,83,84,85,,,,,,,1.1,0.8,0.8*29
$GPGSV,3,1,11,14,29,213,38,15,35,036,28,18,46,331,24,21,57,355,22*7D
$GPGSV,3,2,11,22,26,288,27,24,30,108,19,29,41,180,29,48,,,38*44
$GPGSV,3,3,11,25,,,,26,,,,27,06,319,*42
$GLGSV,3,1,09,,,,29,70,40,299,27,69,30,011,22,84,80,289,27*5F
$GLGSV,3,2,09,83,38,160,24,85,30,329,20,71,11,253,24,80,07,139,*68
$GLGSV,3,3,09,79,10,087,*5C
$GPGGA,010224.0,1919.089862,N,09902.255976,W,1,07,0.8,2267.9,M,0.0,M,,*49
$GNGNS,010224.0,1919.089862,N,09902.255976,W,AA,13,0.8,2267.9,0.0,,*78
$GPVTG,209.6,T,209.6,M,3.4,N,6.3,K,A*21
$GPRMC,010224.0,A,1919.089862,N,09902.255976,W,3.4,209.6,210914,0.0,E,A*12
$GPGSA,A,2,14,15,18,21,22,24,29,,,,,,1.1,0.8,0.8*35
$GNGSA,A,2,14,15,18,21,22,24,29,,,,,,1.1,0.8,0.8*2B
$GNGSA,A,2,69,70,71,83,84,85,,,,,,,1.1,0.8,0.8*29
$GPGSV,3,1,11,14,29,213,38,15,35,036,27,18,46,331,28,21,57,355,24*78
$GPGSV,3,2,11,22,26,288,30,24,30,108,19,29,41,180,33,48,,,32*43
$GPGSV,3,3,11,25,,,,26,,,,27,06,319,*42
$GLGSV,3,1,09,,,,28,70,40,299,27,69,30,011,25,84,80,289,26*58
$GLGSV,3,2,09,83,38,160,23,85,30,329,19,71,11,253,21,80,07,139,*60
$GLGSV,3,3,09,79,10,087,*5C
$GPGGA,010225.0,1919.088729,N,09902.256752,W,1,07,0.8,2265.3,M,0.0,M,,*4A
$GNGNS,010225.0,1919.088729,N,09902.256752,W,AA,13,0.8,2265.3,0.0,,*7B
$GPVTG,215.9,T,215.9,M,3.4,N,6.3,K,A*21
$GPRMC,010225.0,A,1919.088729,N,09902.256752,W,3.4,215.9,210914,0.0,E,A*1B
$GPGSA,A,2,14,15,18,21,22,24,29,,,,,,1.1,0.8,0.8*35
$GNGSA,A,2,14,15,18,21,22,24,29,,,,,,1.1,0.8,0.8*2B
$GNGSA,A,2,69,70,71,83,84,85,,,,,,,1.1,0.8,0.8*29
$GPGSV,3,1,11,14,29,213,38,15,35,036,25,18,46,331,30,21,57,355,18*7C
$GPGSV,3,2,11,22,26,288,29,24,30,108,19,29,41,180,35,48,,,37*48
$GPGSV,3,3,11,25,,,,26,,,,27,06,319,*42
$GLGSV,3,1,09,,,,30,70,40,299,26,69,30,011,19,84,80,289,26*5F
$GLGSV,3,2,09,83,38,160,24,85,30,329,21,71,11,253,18,80,07,139,*66
$GLGSV,3,3,09,79,10,087,*5C
$GPGGA,010226.0,1919.087577,N,09902.257450,W,1,07,0.8,2264.2,M,0.0,M,,*4F
$GNGNS,010226.0,1919.087577,N,09902.257450,W,AA,13,0.8,2264.2,0.0,,*7E
$GPVTG,216.4,T,216.4,M,3.4,N,6.3,K,A*21
$GPRMC,010226.0,A,1919.087577,N,09902.257450,W,3.4,216.4,210914,0.0,E,A*10
$GPGSA,A,2,14,15,18,21,22,24,29,,,,,,1.1,0.8,0.8*35
$GNGSA,A,2,14,15,18,21,22,24,29,,,,,,1.1,0.8,0.8*2B
$GNGSA,A,2,69,70,71,83,84,85,,,,,,,1.1,0.8,0.8*29
$GPGSV,3,1,11,14,29,213,36,15,35,036,22,18,46,331,29,21,57,355,21*77
$GPGSV,3,2,11,22,26,288,27,24,30,108,19,29,41,180,39,48,,,39*44
$GPGSV,3,3,11,25,,,,26,,,,27,06,319,*42
$GLGSV,3,1,09,,,,30,70,40,299,27,69,30,011,22,84,80,289,23*53
$GLGSV,3,2,09,83,38,160,30,85,30,329,28,71,11,253,21,80,07,139,*60
$GLGSV,3,3,09,79,10,087,*5C
$GPGGA,010227.0,1919.086664,N,09902.258116,W,1,07,0.8,2262.6,M,0.0,M,,*44
$GNGNS,010227.0,1919.086664,N,09902.258116,W,AA,13,0.8,2262.6,0.0,,*75
$GPVTG,217.7,T,217.7,M,3.4,N,6.3,K,A*21
$GPRMC,010227.0,A,1919.086664,N,09902.258116,W,3.4,217.7,210914,0.0,E,A*1B
$GPGSA,A,2,14,15,18,21,22,24,29,,,,,,1.1,0.8,0.8*35
$GNGSA,A,2,14,15,18,21,22,24,29,,,,,,1.1,0.8,0.8*2B
$GNGSA,A,2,69,70,71,83,84,85,,,,,,,1.1,0.8,0.8*29
$GPGSV,3,1,11,14,29,213,35,15,35,036,25,18,46,331,24,21,57,355,24*7B
$GPGSV,3,2,11,22,26,288,28,24,30,108,19,29,41,180,37,48,,,41*4A
$GPGSV,3,3,11,25,,,,26,,,,27,06,319,*42
$GLGSV,3,1,09,,,,31,70,40,299,25,69,30,011,20,84,80,289,23*52
$GLGSV,3,2,09,83,38,160,31,85,30,329,28,71,11,253,22,80,07,139,*62
$GLGSV,3,3,09,79,10,087,*5C
$GPGGA,010228.0,1919.085822,N,09902.258526,W,1,07,0.8,2261.3,M,0.0,M,,*45
$GNGNS,010228.0,1919.085822,N,09902.258526,W,AA,13,0.8,2261.3,0.0,,*74
$GPVTG,207.7,T,207.7,M,3.4,N,6.3,K,A*21
$GPRMC,010228.0,A,1919.085822,N,09902.258526,W,3.4,207.7,210914,0.0,E,A*1D
$GPGSA,A,2,14,15,18,21,22,24,29,,,,,,1.1,0.8,0.8*35
$GNGSA,A,2,14,15,18,21,22,24,29,,,,,,1.1,0.8,0.8*2B
$GNGSA,A,2,69,70,71,83,84,85,,,,,,,1.1,0.8,0.8*29
$GPGSV,3,1,11,14,29,213,37,15,35,036,25,18,46,331,33,21,57,355,28*73
$GPGSV,3,2,11,22,26,288,26,24,30,108,19,29,41,180,29,48,,,33*4E
$GPGSV,3,3,11,25,,,,26,,,,27,06,319,*42
$GLGSV,3,1,09,,,,32,70,40,299,28,69,30,011,27,84,80,289,27*5F
$GLGSV,3,2,09,83,38,160,30,85,30,329,27,71,11,253,21,80,07,139,*6F
$GLGSV,3,3,09,79,10,087,*5C
$GPGGA,010229.0,1919.084906,N,09902.258700,W,1,07,0.8,2258.8,M,0.0,M,,*45
$GNGNS,010229.0,1919.084906,N,09902.258700,W,AA,13,0.8,2258.8,0.0,,*74
$GPVTG,197.5,T,197.5,M,3.4,N,6.2,K,A*20
$GPRMC,010229.0,A,1919.084906,N,09902.258700,W,3.4,197.5,210914,0.0,E,A*14
$GPGSA,A,2,14,15,18,21,22,24,29,,,,,,1.1,0.8,0.8*35
$GNGSA,A,2,14,15,18,21,22,24,29,,,,,,1.1,0.8,0.8*2B
$GNGSA,A,2,69,70,71,83,84,85,,,,,,,1.1,0.8,0.8*29
$GPGSV,3,1,11,14,29,213,35,15,35,036,27,18,46,331,32,21,57,355,28*72
$GPGSV,3,2,11,22,26,288,31,24,30,108,17,29,41,180,32,48,,,31*4E
$GPGSV,3,3,11,25,,,,26,,,,27,06,319,*42
$GLGSV,3,1,09,,,,27,70,40,299,28,69,30,011,27,84,80,289,26*5A
$GLGSV,3,2,09,83,38,160,28,85,30,329,26,71,11,253,21,80,07,139,*67
$GLGSV,3,3,09,79,10,087,*5C
$GPGGA,010230.0,1919.083946,N,09902.258613,W,1,07,0.8,2259.4,M,0.0,M,,*40
$GNGNS,010230.0,1919.083946,N,09902.258613,W,AA,13,0.8,2259.4,0.0,,*71
$GPVTG,183.0,T,183.0,M,3.3,N,6.1,K,A*24
$GPRMC,010230.0,A,1919.083946,N,09902.258613,W,3.3,183.0,210914,0.0,E,A*1B
$GPGSA,A,2,14,15,18,21,22,24,29,,,,,,1.1,0.8,0.8*35
$GNGSA,A,2,14,15,18,21,22,24,29,,,,,,1.1,0.8,0.8*2B
$GNGSA,A,2,69,70,71,83,84,85,,,,,,,1.1,0.8,0.8*29
$GPGSV,3,1,11,14,29,213,37,15,35,036,23,18,46,331,29,21,57,355,29*7F
$GPGSV,3,2,11,22,26,288,29,24,30,108,26,27,06,319,19,29,41,180,27*7F
$GPGSV,3,3,11,48,,,39,25,,,,26,,,*7C
$GLGSV,3,1,09,,,,27,70,40,299,30,69,30,011,28,84,80,289,27*5D
$GLGSV,3,2,09,83,38,160,26,85,30,329,28,71,11,253,19,80,07,139,*6C
$GLGSV,3,3,09,79,10,087,*5C
$GPGGA,010231.0,1919.083062,N,09902.258204,W,1,07,0.8,2258.1,M,0.0,M,,*48
$GNGNS,010231.0,1919.083062,N,09902.258204,W,AA,13,0.8,2258.1,0.0,,*79
$GPVTG,164.1,T,164.1,M,3.2,N,6.0,K,A*24
$GPRMC,010231.0,A,1919.083062,N,09902.258204,W,3.2,164.1,210914,0.0,E,A*1E
$GPGSA,A,2,14,15,18,21,22,24,29,,,,,,1.1,0.8,0.8*35
$GNGSA,A,2,14,15,18,21,22,24,29,,,,,,1.1,0.8,0.8*2B
$GNGSA,A,2,69,70,71,83,84,85,,,,,,,1.1,0.8,0.8*29
$GPGSV,3,1,11,14,29,213,22,15,35,036,30,18,46,331,30,21,57,355,30*79
$GPGSV,3,2,11,22,26,288,26,24,30,108,35,29,41,180,26,48,,,36*4A
$GPGSV,3,3,11,25,,,,26,,,,27,06,319,*42
$GLGSV,3,1,09,,,,26,70,40,299,28,69,30,011,24,84,80,289,26*58
$GLGSV,3,2,09,83,38,160,26,85,30,329,25,71,11,253,20,80,07,139,*6B
$GLGSV,3,3,09,79,10,087,*5C
$GPGGA,010232.0,1919.082522,N,09902.257516,W,1,07,0.8,2257.1,M,0.0,M,,*4F
$GNGNS,010232.0,1919.082522,N,09902.257516,W,AA,13,0.8,2257.1,0.0,,*7E
$GPVTG,135.3,T,135.3,M,3.2,N,6.0,K,A*24
$GPRMC,010232.0,A,1919.082522,N,09902.257516,W,3.2,135.3,210914,0.0,E,A*10
$GPGSA,A,2,14,15,18,21,22,24,29,,,,,,1.1,0.8,0.8*35
$GNGSA,A,2,14,15,18,21,22,24,29,,,,,,1.1,0.8,0.8*2B
$GNGSA,A,2,69,70,71,83,84,85,,,,,,,1.1,0.8,0.8*29
$GPGSV,3,1,11,14,29,213,21,15,35,036,28,18,46,331,23,21,57,355,24*74
$GPGSV,3,2,11,22,26,288,21,24,30,108,26,27,06,319,19,29,41,180,25*75
$GPGSV,3,3,11,48,,,36,25,,,,26,,,*73
$GLGSV,3,1,09,,,,27,70,40,299,24,69,30,011,20,84,80,289,26*51
$GLGSV,3,2,09,83,38,160,19,85,30,329,21,71,11,253,22,80,07,139,*61
$GLGSV,3,3,09,79,10,087,*5C
$GPGGA,010233.0,1919.082132,N,09902.256787,W,1,08,0.7,2258.1,M,0.0,M,,*4F
$GNGNS,010233.0,1919.082132,N,09902.256787,W,AA,14,0.7,2258.1,0.0,,*76
$GPVTG,122.5,T,122.5,M,3.2,N,6.0,K,A*24
$GPRMC,010233.0,A,1919.082132,N,09902.256787,W,3.2,122.5,210914,0.0,E,A*1F
$GPGSA,A,2,14,15,18,21,22,24,27,29,,,,,1.1,0.7,0.8*3F
$GNGSA,A,2,14,15,18,21,22,24,27,29,,,,,1.1,0.7,0.8*21
$GNGSA,A,2,69,70,71,83,84,85,,,,,,,1.1,0.7,0.8*26
$GPGSV,3,1,11,14,29,213,21,15,35,036,31,21,57,355,21,22,26,288,24*72
$GPGSV,3,2,11,24,30,108,31,27,06,319,18,29,41,180,25,48,,,36*4E
$GPGSV,3,3,11,18,46,331,,25,,,,26,,,*40
$GLGSV,3,1,09,,,,24,70,40,299,21,69,30,011,18,84,80,289,21*5B
$GLGSV,3,2,09,83,38,160,30,85,30,329,25,71,11,253,21,80,07,139,*6D
$GLGSV,3,3,09,79,10,087,*5C
$GPGGA,010234.0,1919.081709,N,09902.256162,W,1,08,0.7,2258.5,M,0.0,M,,*4C
$GNGNS,010234.0,1919.081709,N,09902.256162,W,AA,14,0.7,2258.5,0.0,,*75
$GPVTG,119.6,T,119.6,M,3.2,N,6.0,K,A*24
$GPRMC,010234.0,A,1919.081709,N,09902.256162,W,3.2,119.6,210914,0.0,E,A*13
$GPGSA,A,2,14,15,18,21,22,24,27,29,,,,,1.1,0.7,0.8*3F
$GNGSA,A,2,14,15,18,21,22,24,27,29,,,,,1.1,0.7,0.8*21
$GNGSA,A,2,69,70,71,83,84,85,,,,,,,1.1,0.7,0.8*26
$GPGSV,3,1,11,14,29,213,17,15,35,036,32,21,57,355,25,22,26,288,21*75
$GPGSV,3,2,11,24,30,108,37,27,06,319,19,29,41,180,27,48,,,36*4B
$GPGSV,3,3,11,18,46,331,,25,,,,26,,,*40
$GLGSV,3,1,09,,,,27,70,40,299,26,69,30,011,23,84,80,289,21*57
$GLGSV,3,2,09,83,38,160,35,85,30,329,24,71,11,253,19,80,07,139,*62
$GLGSV,3,3,09,79,10,087,*5C
$GPGGA,010235.0,1919.081215,N,09902.255470,W,1,08,0.7,2257.9,M,0.0,M,,*43
$GNGNS,010235.0,1919.081215,N,09902.255470,W,AA,14,0.7,2257.9,0.0,,*7A
$GPVTG,123.1,T,123.1,M,3.3,N,6.1,K,A*24
$GPRMC,010235.0,A,1919.081215,N,09902.255470,W,3.3,123.1,210914,0.0,E,A*10
$GPGSA,A,2,14,15,18,21,22,24,27,29,,,,,1.1,0.7,0.8*3F
$GNGSA,A,2,14,15,18,21,22,24,27,29,,,,,1.1,0.7,0.8*21
$GNGSA,A,2,69,70,71,83,84,85,,,,,,,1.1,0.7,0.8*26
$GPGSV,3,1,11,14,29,213,21,15,35,036,25,18,46,331,28,21,57,355,21*77
$GPGSV,3,2,11,22,26,288,24,24,30,108,37,27,06,319,19,29,41,180,29*7C
$GPGSV,3,3,11,48,,,36,25,,,,26,,,*73
$GLGSV,3,1,09,,,,31,70,40,299,31,69,30,011,24,84,80,289,25*55
$GLGSV,3,2,09,83,38,160,35,85,30,329,20,71,11,253,19,80,07,139,*66
$GLGSV,3,3,09,79,10,087,*5C
$GPGGA,010236.0,1919.080722,N,09902.254667,W,1,08,0.7,2258.0,M,0.0,M,,*43
$GNGNS,010236.0,1919.080722,N,09902.254667,W,AA,14,0.7,2258.0,0.0,,*7A
$GPVTG,122.0,T,122.0,M,3.3,N,6.1,K,A*24
$GPRMC,010236.0,A,1919.080722,N,09902.254667,W,3.3,122.0,210914,0.0,E,A*16
$GPGSA,A,2,14,15,18,21,22,24,27,29,,,,,1.1,0.7,0.8*3F
$GNGSA,A,2,14,15,18,21,22,24,27,29,,,,,1.1,0.7,0.8*21
$GNGSA,A,2,69,70,71,83,84,85,,,,,,,1.1,0.7,0.8*26
$GPGSV,3,1,11,14,29,213,23,15,35,036,30,18,46,331,28,21,57,355,23*73
$GPGSV,3,2,11,22,26,288,25,24,30,108,38,27,06,319,22,29,41,180,31*73
$GPGSV,3,3,11,48,,,36,25,,,,26,,,*73
$GLGSV,3,1,09,,,,32,70,40,299,30,69,30,011,28,84,80,289,25*5B
$GLGSV,3,2,09,83,38,160,38,85,30,329,18,71,11,253,19,80,07,139,*60
$GLGSV,3,3,09,79,10,087,*5C
$GPGGA,010237.0,1919.080288,N,09902.253870,W,1,08,0.7,2258.0,M,0.0,M,,*48
$GNGNS,010237.0,1919.080288,N,09902.253870,W,AA,14,0.7,2258.0,0.0,,*71
$GPVTG,119.4,T,119.4,M,3.3,N,6.0,K,A*25
$GPRMC,010237.0,A,1919.080288,N,09902.253870,W,3.3,119.4,210914,0.0,E,A*11
$GPGSA,A,2,14,15,18,21,22,24,27,29,,,,,1.1,0.7,0.8*3F
$GNGSA,A,2,14,15,18,21,22,24,27,29,,,,,1.1,0.7,0.8*21
$GNGSA,A,2,69,70,71,83,84,85,,,,,,,1.1,0.7,0.8*26
$GPGSV,3,1,11,14,29,213,26,15,35,036,29,18,46,331,26,21,57,355,24*77
$GPGSV,3,2,11,22,26,288,26,24,30,108,34,27,06,319,18,29,41,180,32*76
$GPGSV,3,3,11,48,,,36,25,,,,26,,,*73
$GLGSV,3,1,09,,,,32,70,40,299,30,69,30,011,20,84,80,289,24*52
$GLGSV,3,2,09,83,38,160,33,85,30,329,18,71,11,253,19,80,07,139,*6B
$GLGSV,3,3,09,79,10,087,*5C
$GPGGA,010238.0,1919.079803,N,09902.253074,W,1,08,0.7,2258.5,M,0.0,M,,*41
$GNGNS,010238.0,1919.079803,N,09902.253074,W,AA,14,0.7,2258.5,0.0,,*78
$GPVTG,118.9,T,118.9,M,3.2,N,6.0,K,A*24
$GPRMC,010238.0,A,1919.079803,N,09902.253074,W,3.2,118.9,210914,0.0,E,A*10
$GPGSA,A,2,14,15,18,21,22,24,27,29,,,,,1.1,0.7,0.8*3F
$GNGSA,A,2,14,15,18,21,22,24,27,29,,,,,1.1,0.7,0.8*21
$GNGSA,A,2,69,70,71,83,84,85,,,,,,,1.1,0.7,0.8*26
$GPGSV,3,1,11,14,29,213,25,15,35,036,25,18,46,331,27,21,57,355,25*78
$GPGSV,3,2,11,22,26,288,26,24,30,108,32,27,06,319,17,29,41,180,38*75
$GPGSV,3,3,11,48,,,36,25,,,,26,,,*73
$GLGSV,3,1,09,,,,33,70,40,299,30,69,30,011,21,84,80,289,23*55
$GLGSV,3,2,09,83,38,160,32,85,30,329,18,71,11,253,19,80,07,139,*6A
$GLGSV,3,3,09,79,10,087,*5C
$GPGGA,010239.0,1919.079251,N,09902.252352,W,1,08,0.7,2259.2,M,0.0,M,,*4D
$GNGNS,010239.0,1919.079251,N,09902.252352,W,AA,14,0.7,2259.2,0.0,,*74
$GPVTG,121.7,T,121.7,M,3.2,N,5.9,K,A*2E
$GPRMC,010239.0,A,1919.079251,N,09902.252352,W,3.2,121.7,210914,0.0,E,A*1E
$GPGSA,A,2,14,15,18,21,22,24,27,29,,,,,1.1,0.7,0.8*3F
$GNGSA,A,2,14,15,18,21,22,24,27,29,,,,,1.1,0.7,0.8*21
$GNGSA,A,2,69,70,71,83,84,85,,,,,,,1.1,0.7,0.8*26
$GPGSV,3,1,11,14,29,213,25,15,35,036,26,18,46,331,26,21,57,355,21*7E
$GPGSV,3,2,11,22,26,288,21,24,30,108,33,27,06,319,17,29,41,180,37*7C
$GPGSV,3,3,11,48,,,36,25,,,,26,,,*73
$GLGSV,3,1,09,,,,33,70,40,299,26,69,30,011,18,84,80,289,25*5E
$GLGSV,3,2,09,83,38,160,33,85,30,329,19,71,11,253,16,80,07,139,*65
$GLGSV,3,3,09,79,10,087,*5C
$GPGGA,010240.0,1919.078639,N,09902.251779,W,1,08,0.7,2259.4,M,0.0,M,,*40
$GNGNS,010240.0,1919.078639,N,09902.251779,W,AA,14,0.7,2259.4,0.0,,*79
$GPVTG,125.8,T,125.8,M,3.1,N,5.7,K,A*23
$GPRMC,010240.0,A,1919.078639,N,09902.251779,W,3.1,125.8,210914,0.0,E,A*1D
$GPGSA,A,2,14,15,18,21,22,24,27,29,,,,,1.1,0.7,0.8*3F
$GNGSA,A,2,14,15,18,21,22,24,27,29,,,,,1.1,0.7,0.8*21
$GNGSA,A,2,69,70,71,83,84,85,,,,,,,1.1,0.7,0.8*26
$GPGSV,3,1,11,14,29,213,28,15,35,036,22,18,46,331,27,21,57,355,19*7D
$GPGSV,3,2,11,22,26,288,17,24,30,108,33,27,06,319,17,29,41,180,30*7E
$GPGSV,3,3,11,48,,,36,25,,,,26,,,*73
$GLGSV,3,1,09,,,,32,70,40,299,20,69,30,011,19,84,80,289,24*59
$GLGSV,3,2,09,83,38,160,33,85,30,329,21,71,11,253,19,80,07,139,*61
$GLGSV,3,3,09,79,10,087,*5C
$GPGGA,010241.0,1919.078453,N,09902.251736,W,1,08,0.7,2260.3,M,0.0,M,,*49
$GNGNS,010241.0,1919.078453,N,09902.251736,W,AA,14,0.7,2260.3,0.0,,*70
$GPVTG,125.8,T,125.8,M,1.2,N,2.2,K,A*20
$GPRMC,010241.0,A,1919.078453,N,09902.251736,W,1.2,125.8,210914,0.0,E,A*18
$GPGSA,A,2,14,15,18,21,22,24,27,29,,,,,1.1,0.7,0.8*3F
$GNGSA,A,2,14,15,18,21,22,24,27,29,,,,,1.1,0.7,0.8*21
$GNGSA,A,2,69,70,71,83,84,85,,,,,,,1.1,0.7,0.8*26
$GPGSV,3,1,11,14,29,213,27,15,35,036,21,18,46,331,27,21,57,355,18*70
$GPGSV,3,2,11,22,26,288,21,24,30,108,33,27,06,319,17,29,41,180,28*72
$GPGSV,3,3,11,48,,,36,25,,,,26,,,*73
$GLGSV,3,1,09,,,,32,70,40,299,23,69,30,011,24,84,80,289,27*57
$GLGSV,3,2,09,83,38,160,31,85,30,329,23,71,11,253,22,80,07,139,*69
$GLGSV,3,3,09,79,10,087,*5C
$GPGGA,010242.0,1919.078285,N,09902.251578,W,1,08,0.7,2262.1,M,0.0,M,,*4F
$GNGNS,010242.0,1919.078285,N,09902.251578,W,AA,14,0.7,2262.1,0.0,,*76
$GPVTG,125.8,T,125.8,M,1.1,N,2.1,K,A*20
$GPRMC,010242.0,A,1919.078285,N,09902.251578,W,1.1,125.8,210914,0.0,E,A*1D
$GPGSA,A,2,14,15,18,21,22,24,27,29,,,,,1.1,0.7,0.8*3F
$GNGSA,A,2,14,15,18,21,22,24,27,29,,,,,1.1,0.7,0.8*21
$GNGSA,A,2,69,70,71,83,84,85,,,,,,,1.1,0.7,0.8*26
$GPGSV,3,1,11,14,29,213,31,18,46,331,30,21,57,355,19,24,30,108,32*79
$GPGSV,3,2,11,29,41,180,31,48,,,36,15,35,036,,22,26,288,*45
$GPGSV,3,3,11,25,,,,26,,,,27,06,319,*42
$GLGSV,3,1,09,,,,34,70,40,299,22,69,30,011,27,84,80,289,25*51
$GLGSV,3,2,09,83,38,160,31,85,30,329,26,71,11,253,19,80,07,139,*64
$GLGSV,3,3,09,79,10,087,*5C
$GPGGA,010243.0,1919.078128,N,09902.251368,W,1,08,0.7,2261.6,M,0.0,M,,*49
$GNGNS,010243.0,1919.078128,N,09902.251368,W,AA,14,0.7,2261.6,0.0,,*70
$GPVTG,125.8,T,125.8,M,1.1,N,2.0,K,A*21
$GPRMC,010243.0,A,1919.078128,N,09902.251368,W,1.1,125.8,210914,0.0,E,A*1F
$GPGSA,A,2,14,15,18,21,22,24,27,29,,,,,1.1,0.7,0.8*3F
$GNGSA,A,2,14,15,18,21,22,24,27,29,,,,,1.1,0.7,0.8*21
$GNGSA,A,2,69,70,71,83,84,85,,,,,,,1.1,0.7,0.8*26
$GPGSV,3,1,11,14,29,213,29,18,46,331,28,21,57,355,26,24,30,108,34*73
$GPGSV,3,2,11,29,41,180,23,48,,,30,15,35,036,,22,26,288,*40
$GPGSV,3,3,11,25,,,,26,,,,27,06,319,*42
$GLGSV,3,1,09,,,,33,70,40,299,22,80,07,139,12,69,30,011,22*54
$GLGSV,3,2,09,84,80,289,27,83,38,160,31,85,30,329,26,71,11,253,19*62
$GLGSV,3,3,09,79,10,087,*5C
$GPGGA,010244.0,1919.078084,N,09902.251251,W,1,08,0.7,2259.9,M,0.0,M,,*46
$GNGNS,010244.0,1919.078084,N,09902.251251,W,AA,14,0.7,2259.9,0.0,,*7F
$GPVTG,125.8,T,125.8,M,1.1,N,2.0,K,A*21
$GPRMC,010244.0,A,1919.078084,N,09902.251251,W,1.1,125.8,210914,0.0,E,A*14
$GPGSA,A,2,14,15,18,21,22,24,27,29,,,,,1.1,0.7,0.8*3F
$GNGSA,A,2,14,15,18,21,22,24,27,29,,,,,1.1,0.7,0.8*21
$GNGSA,A,2,69,70,71,83,84,85,,,,,,,1.1,0.7,0.8*26
$GPGSV,3,1,11,14,29,213,25,15,35,036,25,18,46,331,30,21,57,355,33*79
$GPGSV,3,2,11,24,30,108,35,29,41,180,26,48,,,30,22,26,288,*48
$GPGSV,3,3,11,25,,,,26,,,,27,06,319,*42
$GLGSV,3,1,09,,,,33,70,40,299,25,80,07,139,12,69,30,011,22*53
$GLGSV,3,2,09,84,80,289,28,83,38,160,28,85,30,329,29,71,11,253,17*64
$GLGSV,3,3,09,79,10,087,*5C
$GPGGA,010245.0,1919.077900,N,09902.251132,W,1,07,0.8,2258.9,M,0.0,M,,*4A
$GNGNS,010245.0,1919.077900,N,09902.251132,W,AA,13,0.8,2258.9,0.0,,*7B
$GPVTG,125.8,T,125.8,M,1.1,N,2.0,K,A*21
$GPRMC,010245.0,A,1919.077900,N,09902.251132,W,1.1,125.8,210914,0.0,E,A*19
$GPGSA,A,2,14,15,18,21,22,24,29,,,,,,1.1,0.8,0.8*35
$GNGSA,A,2,14,15,18,21,22,24,29,,,,,,1.1,0.8,0.8*2B
$GNGSA,A,2,69,70,71,83,84,85,,,,,,,1.1,0.8,0.8*29
$GPGSV,3,1,11,14,30,213,21,15,34,036,27,18,46,333,32,21,57,357,31*76
$GPGSV,3,2,11,22,26,288,19,24,30,108,36,29,41,178,30,48,,,30*43
$GPGSV,3,3,11,25,,,,26,,,,27,07,319,*43
$GLGSV,3,1,09,,,,34,70,40,299,25,80,07,139,12,69,30,011,18*5D
$GLGSV,3,2,09,84,80,289,27,83,38,160,21,85,30,329,27,71,11,253,17*6C
$GLGSV,3,3,09,79,10,087,*5C
$GPGGA,010246.0,1919.077798,N,09902.251199,W,1,07,0.8,2255.3,M,0.0,M,,*40
$GNGNS,010246.0,1919.077798,N,09902.251199,W,AA,13,0.8,2255.3,0.0,,*71
$GPVTG,125.8,T,125.8,M,0.9,N,1.7,K,A*2C
$GPRMC,010246.0,A,1919.077798,N,09902.251199,W,0.9,125.8,210914,0.0,E,A*1D
$GPGSA,A,2,14,15,18,21,22,24,29,,,,,,1.1,0.8,0.8*35
$GNGSA,A,2,14,15,18,21,22,24,29,,,,,,1.1,0.8,0.8*2B
$GNGSA,A,2,69,70,71,83,84,85,,,,,,,1.1,0.8,0.8*29
$GPGSV,3,1,09,14,30,213,20,15,34,036,28,18,46,333,32,21,57,357,30*70
$GPGSV,3,2,09,22,26,288,19,24,30,108,36,29,41,178,31,48,,,31*4A
$GPGSV,3,3,09,27,07,319,*49
$GLGSV,3,1,09,,,,33,70,40,299,25,80,07,139,12,69,30,011,20*51
$GLGSV,3,2,09,84,80,289,25,83,38,160,33,85,30,329,25,71,11,253,17*6F
$GLGSV,3,3,09,79,10,087,*5C
$GPGGA,010247.0,1919.077863,N,09902.251916,W,1,07,0.8,2254.8,M,0.0,M,,*4F
$GNGNS,010247.0,1919.077863,N,09902.251916,W,AA,13,0.8,2254.8,0.0,,*7E
$GPVTG,125.8,T,125.8,M,0.0,N,0.0,K,A*23
$GPRMC,010247.0,A,1919.077863,N,09902.251916,W,0.0,125.8,210914,0.0,E,A*11
$GPGSA,A,2,14,15,18,21,22,24,29,,,,,,1.1,0.8,0.8*35
$GNGSA,A,2,14,15,18,21,22,24,29,,,,,,1.1,0.8,0.8*2B
$GNGSA,A,2,69,70,71,83,84,85,,,,,,,1.1,0.8,0.8*29
$GPGSV,3,1,09,14,30,213,25,15,34,036,26,18,46,333,30,21,57,357,31*78
$GPGSV,3,2,09,22,26,288,24,24,30,108,34,29,41,178,35,48,,,31*42
$GPGSV,3,3,09,27,07,319,*49
$GLGSV,3,1,09,,,,33,70,40,299,30,80,07,139,12,69,30,011,23*56
$GLGSV,3,2,09,84,80,289,26,83,38,160,31,85,30,329,27,71,11,253,16*6D
$GLGSV,3,3,09,79,10,087,*5C
$GPGGA,010248.0,1919.077781,N,09902.252027,W,1,07,0.8,2257.1,M,0.0,M,,*41
$GNGNS,010248.0,1919.077781,N,09902.252027,W,AA,13,0.8,2257.1,0.0,,*70
$GPVTG,125.8,T,125.8,M,0.6,N,1.1,K,A*25
$GPRMC,010248.0,A,1919.077781,N,09902.252027,W,0.6,125.8,210914,0.0,E,A*13
$GPGSA,A,2,14,15,18,21,22,24,29,,,,,,1.1,0.8,0.8*35
$GNGSA,A,2,14,15,18,21,22,24,29,,,,,,1.1,0.8,0.8*2B
$GNGSA,A,2,69,70,71,83,84,85,,,,,,,1.1,0.8,0.8*29
$GPGSV,3,1,09,14,30,213,25,15,34,036,23,18,46,333,28,21,57,357,29*7D
$GPGSV,3,2,09,22,26,288,25,24,30,108,31,29,41,178,36,48,,,31*45
$GPGSV,3,3,09,27,07,319,*49
$GLGSV,3,1,09,,,,34,70,40,299,30,80,07,139,12,69,30,011,23*51
$GLGSV,3,2,09,84,80,289,28,83,38,160,31,85,30,329,23,71,11,253,18*69
$GLGSV,3,3,09,79,10,087,*5C
$GPGGA,010249.0,1919.077603,N,09902.251926,W,1,07,0.8,2256.5,M,0.0,M,,*45
$GNGNS,010249.0,1919.077603,N,09902.251926,W,AA,13,0.8,2256.5,0.0,,*74
$GPVTG,125.8,T,125.8,M,0.7,N,1.4,K,A*21
$GPRMC,010249.0,A,1919.077603,N,09902.251926,W,0.7,125.8,210914,0.0,E,A*13
$GPGSA,A,2,14,15,18,21,22,24,29,,,,,,1.1,0.8,0.8*35
$GNGSA,A,2,14,15,18,21,22,24,29,,,,,,1.1,0.8,0.8*2B
$GNGSA,A,2,69,70,71,83,84,85,,,,,,,1.1,0.8,0.8*29
$GPGSV,3,1,09,14,30,213,23,15,34,036,24,18,46,333,29,21,57,357,24*70
$GPGSV,3,2,09,22,26,288,24,24,30,108,35,27,07,319,22,29,41,178,37*76
$GPGSV,3,3,09,48,,,31*7E
$GLGSV,3,1,09,,,,34,70,40,299,32,80,07,139,12,69,30,011,22*52
$GLGSV,3,2,09,84,80,289,29,83,38,160,31,85,30,329,25,71,11,253,18*6E
$GLGSV,3,3,09,79,10,087,*5C
$GPGGA,010250.0,1919.077405,N,09902.251779,W,1,08,0.7,2257.3,M,0.0,M,,*4A
$GNGNS,010250.0,1919.077405,N,09902.251779,W,AA,14,0.7,2257.3,0.0,,*73
$GPVTG,125.8,T,125.8,M,0.7,N,1.3,K,A*26
$GPRMC,010250.0,A,1919.077405,N,09902.251779,W,0.7,125.8,210914,0.0,E,A*1B
$GPGSA,A,2,14,15,18,21,22,24,27,29,,,,,1.1,0.7,0.8*3F
