$GPGSV,4,1,15,01,34,060,31,04,45,074,40,07,43,135,29,08,23,133,20*7E
$GPGSV,4,2,15,09,02,167,12,11,19,045,35,13,04,167,19,17,62,286,28*76
$GPGSV,4,3,15,20,05,115,22,26,26,284,23,28,42,001,36,30,76,104,28*72
$GPGSV,4,4,15,51,,,33,06,20,191,,15,,,*40
$GLGSV,2,1,08,74,37,113,32,,,,29,86,66,254,22,76,16,334,22*5F
$GLGSV,2,2,08,75,59,023,33,87,15,217,18,85,46,012,34,84,02,028,*6B
$GPGGA,142522.0,1928.642864,N,09905.662745,W,1,11,0.7,2244.8,M,0.0,M,,*4A
$GNGNS,142522.0,1928.642864,N,09905.662745,W,AA,16,0.7,2244.8,0.0,,*79
$GPVTG,339.7,T,339.7,M,0.0,N,0.0,K,A*23
$GPRMC,142522.0,A,1928.642864,N,09905.662745,W,0.0,339.7,260914,0.0,E,A*1A
$GPGSA,A,2,01,04,07,08,11,13,17,20,26,28,30,,1.0,0.7,0.7*33
$GNGSA,A,2,01,04,07,08,11,13,17,20,26,28,30,,1.0,0.7,0.7*2D
$GNGSA,A,2,74,75,76,85,86,,,,,,,,1.0,0.7,0.7*2F
$GPGSV,4,1,15,01,34,060,30,04,45,074,39,06,20,191,21,07,43,135,30*7D
$GPGSV,4,2,15,08,23,133,21,09,02,167,12,11,19,045,35,13,04,167,20*73
$GPGSV,4,3,15,17,62,286,28,20,05,115,22,26,26,284,24,28,42,001,36*7C
$GPGSV,4,4,15,30,76,104,29,51,,,34,15,,,*46
$GLGSV,2,1,08,74,37,113,32,,,,28,86,66,254,23,76,16,334,23*5E
$GLGSV,2,2,08,75,59,023,32,87,15,217,18,85,46,012,33,84,02,028,*6D
$GPGGA,142523.0,1928.642852,N,09905.662745,W,1,12,0.7,2244.8,M,0.0,M,,*4D
$GNGNS,142523.0,1928.642852,N,09905.662745,W,AA,17,0.7,2244.8,0.0,,*7C
$GPVTG,339.7,T,339.7,M,0.0,N,0.0,K,A*23
$GPRMC,142523.0,A,1928.642852,N,09905.662745,W,0.0,339.7,260914,0.0,E,A*1E
$GPGSA,A,2,01,04,06,07,08,11,13,17,20,26,28,30,1.0,0.7,0.7*35
$GNGSA,A,2,01,04,06,07,08,11,13,17,20,26,28,30,1.0,0.7,0.7*2B
$GNGSA,A,2,74,75,76,85,86,,,,,,,,1.0,0.7,0.7*2F
$GPGSV,4,1,15,01,34,060,33,04,45,074,39,06,20,191,21,07,43,135,33*7D
$GPGSV,4,2,15,08,23,133,25,09,02,167,15,11,19,045,35,13,04,167,20*70
$GPGSV,4,3,15,17,62,286,30,20,05,115,21,26,26,284,23,28,42,001,36*71
$GPGSV,4,4,15,30,76,104,31,51,,,33,15,,,*48
$GLGSV,2,1,08,74,37,113,34,,,,27,86,66,254,24,76,16,334,23*50
$GLGSV,2,2,08,75,59,023,32,87,15,217,18,85,46,012,33,84,02,028,*6D
$GPGGA,142524.0,1928.642843,N,09905.662745,W,1,12,0.7,2244.8,M,0.0,M,,*4A
$GNGNS,142524.0,1928.642843,N,09905.662745,W,AA,17,0.7,2244.8,0.0,,*7B
$GPVTG,339.7,T,339.7,M,0.0,N,0.0,K,A*23
$GPRMC,142524.0,A,1928.642843,N,09905.662745,W,0.0,339.7,260914,0.0,E,A*19
$GPGSA,A,2,01,04,06,07,08,11,13,17,20,26,28,30,1.0,0.7,0.7*35
$GNGSA,A,2,01,04,06,07,08,11,13,17,20,26,28,30,1.0,0.7,0.7*2B
$GNGSA,A,2,74,75,76,85,86,,,,,,,,1.0,0.7,0.7*2F
$GPGSV,4,1,15,01,34,060,35,04,45,074,40,07,43,135,31,08,23,133,29*7A
$GPGSV,4,2,15,09,02,167,15,11,19,045,35,13,04,167,20,17,62,286,29*7A
$GPGSV,4,3,15,20,05,115,20,26,26,284,23,28,42,001,39,30,76,104,33*75
$GPGSV,4,4,15,51,,,32,06,20,191,,15,,,*41
$GLGSV,2,1,08,74,37,113,35,,,,29,86,66,254,23,76,16,334,21*5A
$GLGSV,2,2,08,75,59,023,31,87,15,217,14,85,46,012,36,84,02,028,*67
$GPGGA,142525.0,1928.642839,N,09905.662744,W,1,12,0.7,2244.8,M,0.0,M,,*47
$GNGNS,142525.0,1928.642839,N,09905.662744,W,AA,17,0.7,2244.8,0.0,,*76
$GPVTG,339.7,T,339.7,M,0.0,N,0.0,K,A*23
$GPRMC,142525.0,A,1928.642839,N,09905.662744,W,0.0,339.7,260914,0.0,E,A*14
$GPGSA,A,2,01,04,06,07,08,11,13,17,20,26,28,30,1.0,0.7,0.7*35
$GNGSA,A,2,01,04,06,07,08,11,13,17,20,26,28,30,1.0,0.7,0.7*2B
$GNGSA,A,2,74,75,76,85,86,,,,,,,,1.0,0.7,0.7*2F
$GPGSV,4,1,15,01,34,060,34,04,45,074,41,07,43,135,28,08,23,133,35*7F
$GPGSV,4,2,15,09,02,167,15,11,19,045,32,13,04,167,20,17,62,286,26*72
$GPGSV,4,3,15,20,05,115,18,26,26,284,24,28,42,001,31,30,76,104,31*73
$GPGSV,4,4,15,51,,,32,06,20,191,,15,,,*41
$GLGSV,2,1,08,74,37,113,35,,,,27,86,66,254,18,76,16,334,18*56
$GLGSV,2,2,08,75,59,023,30,87,15,217,24,85,46,012,32,84,02,028,*61
$GPGGA,142526.0,1928.642817,N,09905.662750,W,1,12,0.6,2244.7,M,0.0,M,,*43
$GNGNS,142526.0,1928.642817,N,09905.662750,W,AA,18,0.6,2244.7,0.0,,*7D
$GPVTG,339.7,T,339.7,M,0.0,N,0.0,K,A*23
$GPRMC,142526.0,A,1928.642817,N,09905.662750,W,0.0,339.7,260914,0.0,E,A*1E
$GPGSA,A,2,01,04,06,07,08,11,13,17,20,26,28,30,0.9,0.6,0.7*3C
$GNGSA,A,2,01,04,06,07,08,11,13,17,20,26,28,30,0.9,0.6,0.7*22
$GNGSA,A,2,74,75,76,85,86,87,,,,,,,0.9,0.6,0.7*29
$GPGSV,4,1,15,01,34,060,36,04,45,074,40,07,43,135,32,08,23,133,37*75
$GPGSV,4,2,15,09,02,167,17,11,19,045,34,13,04,167,20,17,62,286,30*71
$GPGSV,4,3,15,20,05,115,17,26,26,284,19,28,42,001,32,30,76,104,32*72
$GPGSV,4,4,15,51,,,32,06,20,191,,15,,,*41
$GLGSV,2,1,08,74,37,113,36,,,,29,86,66,254,31,76,16,334,18*50
$GLGSV,2,2,08,75,59,023,31,87,15,217,22,85,46,012,33,84,02,028,*67
$GPGGA,142527.0,1928.642788,N,09905.662756,W,1,12,0.6,2244.6,M,0.0,M,,*4C
$GNGNS,142527.0,1928.642788,N,09905.662756,W,AA,18,0.6,2244.6,0.0,,*72
$GPVTG,339.7,T,339.7,M,0.0,N,0.0,K,A*23
$GPRMC,142527.0,A,1928.642788,N,09905.662756,W,0.0,339.7,260914,0.0,E,A*10
$GPGSA,A,2,01,04,06,07,08,11,13,17,20,26,28,30,0.9,0.6,0.7*3C
$GNGSA,A,2,01,04,06,07,08,11,13,17,20,26,28,30,0.9,0.6,0.7*22
$GNGSA,A,2,74,75,76,85,86,87,,,,,,,0.9,0.6,0.7*29
$GPGSV,4,1,15,01,34,060,34,04,45,074,39,07,43,135,37,08,23,133,35*7E
$GPGSV,4,2,15,09,02,167,17,11,19,045,33,13,04,167,16,17,62,286,31*72
$GPGSV,4,3,15,20,05,115,20,26,26,284,19,28,42,001,34,30,76,104,35*77
$GPGSV,4,4,15,51,,,32,06,20,191,,15,,,*41
$GLGSV,2,1,08,74,37,113,29,,,,28,86,66,254,32,76,16,334,16*52
$GLGSV,2,2,08,75,59,023,28,87,15,217,24,85,46,012,34,84,02,028,*6E
$GPGGA,142528.0,1928.642755,N,09905.662774,W,1,12,0.6,2244.5,M,0.0,M,,*40
$GNGNS,142528.0,1928.642755,N,09905.662774,W,AA,18,0.6,2244.5,0.0,,*7E
$GPVTG,339.7,T,339.7,M,0.0,N,0.0,K,A*23
$GPRMC,142528.0,A,1928.642755,N,09905.662774,W,0.0,339.7,260914,0.0,E,A*1F
$GPGSA,A,2,01,04,06,07,08,11,13,17,20,26,28,30,0.9,0.6,0.7*3C
$GNGSA,A,2,01,04,06,07,08,11,13,17,20,26,28,30,0.9,0.6,0.7*22
$GNGSA,A,2,74,75,76,85,86,87,,,,,,,0.9,0.6,0.7*29
$GPGSV,4,1,15,01,34,060,33,04,45,074,40,06,20,191,23,07,43,135,35*77
$GPGSV,4,2,15,08,23,133,37,09,02,167,17,11,19,045,36,13,04,167,16*77
$GPGSV,4,3,15,17,62,286,29,20,05,115,22,26,26,284,15,28,42,001,33*7A
$GPGSV,4,4,15,30,76,104,33,51,,,32,15,,,*4B
$GLGSV,2,1,08,74,37,113,33,,,,32,86,66,254,30,76,16,334,16*50
$GLGSV,2,2,08,75,59,023,28,84,02,028,16,87,15,217,23,85,46,012,36*6C
$GPGGA,142529.0,1928.642716,N,09905.662795,W,1,12,0.6,2244.4,M,0.0,M,,*48
$GNGNS,142529.0,1928.642716,N,09905.662795,W,AA,18,0.6,2244.4,0.0,,*76
$GPVTG,339.7,T,339.7,M,0.0,N,0.0,K,A*23
$GPRMC,142529.0,A,1928.642716,N,09905.662795,W,0.0,339.7,260914,0.0,E,A*16
$GPGSA,A,2,01,04,06,07,08,11,13,17,20,26,28,30,0.9,0.6,0.7*3C
$GNGSA,A,2,01,04,06,07,08,11,13,17,20,26,28,30,0.9,0.6,0.7*22
$GNGSA,A,2,74,75,76,85,86,87,,,,,,,0.9,0.6,0.7*29
$GPGSV,4,1,15,01,34,060,33,04,45,074,39,06,20,191,24,07,43,135,35*7E
$GPGSV,4,2,15,08,23,133,37,09,02,167,17,11,19,045,37,13,04,167,16*76
$GPGSV,4,3,15,17,62,286,28,20,05,115,22,26,26,284,20,28,42,001,35*7B
$GPGSV,4,4,15,30,76,104,33,51,,,31,15,,,*48
$GLGSV,2,1,08,74,37,113,34,,,,32,86,66,254,31,76,16,334,18*58
$GLGSV,2,2,08,75,59,023,28,84,02,028,16,87,15,217,23,85,46,012,37*6D
$GPGGA,142530.0,1928.642694,N,09905.662805,W,1,12,0.6,2244.4,M,0.0,M,,*4D
$GNGNS,142530.0,1928.642694,N,09905.662805,W,AA,18,0.6,2244.4,0.0,,*73
$GPVTG,339.7,T,339.7,M,0.0,N,0.0,K,A*23
$GPRMC,142530.0,A,1928.642694,N,09905.662805,W,0.0,339.7,260914,0.0,E,A*13
$GPGSA,A,2,01,04,06,07,08,11,13,17,20,26,28,30,0.9,0.6,0.7*3C
$GNGSA,A,2,01,04,06,07,08,11,13,17,20,26,28,30,0.9,0.6,0.7*22
$GNGSA,A,2,74,75,76,85,86,87,,,,,,,0.9,0.6,0.7*29
$GPGSV,4,1,15,01,34,060,36,04,45,074,39,07,43,135,37,08,23,133,40*7E
$GPGSV,4,2,15,09,02,167,15,11,19,045,34,13,04,167,16,17,62,286,28*7F
$GPGSV,4,3,15,20,05,115,22,26,26,284,19,28,42,001,38,30,76,104,32*7E
$GPGSV,4,4,15,51,,,34,06,20,191,,15,,,*47
$GLGSV,2,1,08,74,37,113,38,,,,31,86,66,254,24,76,16,334,23*5B
$GLGSV,2,2,08,75,59,023,30,84,02,028,16,87,15,217,22,85,46,012,40*65
$GPGGA,142531.0,1928.642674,N,09905.662815,W,1,11,0.7,2244.3,M,0.0,M,,*46
$GNGNS,142531.0,1928.642674,N,09905.662815,W,AA,17,0.7,2244.3,0.0,,*74
$GPVTG,339.7,T,339.7,M,0.0,N,0.0,K,A*23
$GPRMC,142531.0,A,1928.642674,N,09905.662815,W,0.0,339.7,260914,0.0,E,A*1D
$GPGSA,A,2,01,04,06,07,08,11,17,20,26,28,30,,1.0,0.7,0.7*37
$GNGSA,A,2,01,04,06,07,08,11,17,20,26,28,30,,1.0,0.7,0.7*29
$GNGSA,A,2,74,75,76,85,86,87,,,,,,,1.0,0.7,0.7*20
$GPGSV,4,1,15,01,34,060,29,04,45,074,38,07,43,135,39,08,23,133,39*71
$GPGSV,4,2,15,09,02,167,15,11,19,045,33,13,04,167,15,17,62,286,20*73
$GPGSV,4,3,15,20,05,115,26,26,26,284,20,28,42,001,38,30,76,104,34*76
$GPGSV,4,4,15,51,,,33,06,20,191,,15,,,*40
$GLGSV,2,1,08,74,37,113,35,,,,30,86,66,254,24,76,16,334,21*55
$GLGSV,2,2,08,75,59,023,30,84,02,028,16,87,15,217,20,85,46,012,39*69
$GPGGA,142532.0,1928.642666,N,09905.662820,W,1,11,0.7,2244.3,M,0.0,M,,*40
$GNGNS,142532.0,1928.642666,N,09905.662820,W,AA,17,0.7,2244.3,0.0,,*72
$GPVTG,339.7,T,339.7,M,0.0,N,0.0,K,A*23
$GPRMC,142532.0,A,1928.642666,N,09905.662820,W,0.0,339.7,260914,0.0,E,A*1B
$GPGSA,A,2,01,04,06,07,08,11,17,20,26,28,30,,1.0,0.7,0.7*37
$GNGSA,A,2,01,04,06,07,08,11,17,20,26,28,30,,1.0,0.7,0.7*29
$GNGSA,A,2,74,75,76,85,86,87,,,,,,,1.0,0.7,0.7*20
$GPGSV,4,1,15,01,34,060,29,04,45,074,38,07,43,135,40,08,23,133,37*71
$GPGSV,4,2,15,09,02,167,17,11,19,045,33,13,04,167,15,17,62,286,27*76
$GPGSV,4,3,15,20,05,115,26,26,26,284,18,28,42,001,38,30,76,104,34*7D
$GPGSV,4,4,15,51,,,30,06,20,191,,15,,,*43
$GLGSV,2,1,08,74,37,113,35,,,,30,86,66,254,24,76,16,334,19*5E
$GLGSV,2,2,08,75,59,023,31,84,02,028,16,87,15,217,22,85,46,012,38*6B
$GPGGA,142533.0,1928.642664,N,09905.662821,W,1,11,0.7,2244.3,M,0.0,M,,*42
$GNGNS,142533.0,1928.642664,N,09905.662821,W,AA,17,0.7,2244.3,0.0,,*70
$GPVTG,339.7,T,339.7,M,0.0,N,0.0,K,A*23
$GPRMC,142533.0,A,1928.642664,N,09905.662821,W,0.0,339.7,260914,0.0,E,A*19
$GPGSA,A,2,01,04,06,07,08,11,17,20,26,28,30,,1.0,0.7,0.7*37
$GNGSA,A,2,01,04,06,07,08,11,17,20,26,28,30,,1.0,0.7,0.7*29
$GNGSA,A,2,74,75,76,85,86,87,,,,,,,1.0,0.7,0.7*20
$GPGSV,4,1,15,01,34,060,33,04,45,074,35,06,20,191,25,07,43,135,38*7E
$GPGSV,4,2,15,08,23,133,35,09,02,167,17,11,19,045,35,13,04,167,17*77
$GPGSV,4,3,15,17,62,286,30,20,05,115,26,26,26,284,19,28,42,001,37*7E
$GPGSV,4,4,15,30,76,104,30,51,,,30,15,,,*4A
$GLGSV,2,1,08,74,37,113,32,,,,30,86,66,254,24,76,16,334,19*59
$GLGSV,2,2,08,75,59,023,31,84,02,028,16,87,15,217,22,85,46,012,36*65
$GPGGA,142534.0,1928.642667,N,09905.662820,W,1,11,0.7,2244.3,M,0.0,M,,*47
$GNGNS,142534.0,1928.642667,N,09905.662820,W,AA,17,0.7,2244.3,0.0,,*75
$GPVTG,339.7,T,339.7,M,0.0,N,0.0,K,A*23
$GPRMC,142534.0,A,1928.642667,N,09905.662820,W,0.0,339.7,260914,0.0,E,A*1C
$GPGSA,A,2,01,04,06,07,08,11,17,20,26,28,30,,1.0,0.7,0.7*37
$GNGSA,A,2,01,04,06,07,08,11,17,20,26,28,30,,1.0,0.7,0.7*29
$GNGSA,A,2,74,75,76,85,86,87,,,,,,,1.0,0.7,0.7*20
$GPGSV,4,1,15,01,34,060,33,04,45,074,36,06,20,191,22,07,43,135,37*75
$GPGSV,4,2,15,08,23,133,35,09,02,167,17,11,19,045,34,13,04,167,17*76
$GPGSV,4,3,15,17,62,286,31,20,05,115,24,26,26,284,18,28,42,001,36*7D
$GPGSV,4,4,15,30,76,104,28,51,,,30,15,,,*43
$GLGSV,2,1,08,74,37,113,34,,,,32,86,66,254,30,76,16,334,19*58
$GLGSV,2,2,08,75,59,023,31,84,02,028,16,87,15,217,22,85,46,012,36*65
$GPGGA,142535.0,1928.642675,N,09905.662807,W,1,11,0.7,2244.3,M,0.0,M,,*40
$GNGNS,142535.0,1928.642675,N,09905.662807,W,AA,17,0.7,2244.3,0.0,,*72
$GPVTG,339.7,T,339.7,M,0.0,N,0.0,K,A*23
$GPRMC,142535.0,A,1928.642675,N,09905.662807,W,0.0,339.7,260914,0.0,E,A*1B
$GPGSA,A,2,01,04,06,07,08,11,17,20,26,28,30,,1.0,0.7,0.7*37
$GNGSA,A,2,01,04,06,07,08,11,17,20,26,28,30,,1.0,0.7,0.7*29
$GNGSA,A,2,74,75,76,85,86,87,,,,,,,1.0,0.7,0.7*20
$GPGSV,4,1,15,01,34,060,32,04,45,074,33,06,20,191,22,07,43,135,28*7F
$GPGSV,4,2,15,08,23,133,29,09,02,167,17,11,19,045,26,13,04,167,17*78
$GPGSV,4,3,15,17,62,286,25,20,05,115,19,26,26,284,20,28,42,001,31*7A
$GPGSV,4,4,15,30,76,104,29,51,,,30,15,,,*42
$GLGSV,2,1,08,74,37,113,28,,,,19,86,66,254,21,76,16,334,19*5C
$GLGSV,2,2,08,75,59,023,26,84,02,028,16,87,15,217,22,85,46,012,31*64
$GPGGA,142536.0,1928.642683,N,09905.662798,W,1,11,0.7,2244.4,M,0.0,M,,*44
$GNGNS,142536.0,1928.642683,N,09905.662798,W,AA,17,0.7,2244.4,0.0,,*76
$GPVTG,339.7,T,339.7,M,0.0,N,0.0,K,A*23
$GPRMC,142536.0,A,1928.642683,N,09905.662798,W,0.0,339.7,260914,0.0,E,A*18
$GPGSA,A,2,01,04,06,07,08,11,17,20,26,28,30,,1.0,0.7,0.7*37
$GNGSA,A,2,01,04,06,07,08,11,17,20,26,28,30,,1.0,0.7,0.7*29
$GNGSA,A,2,74,75,76,85,86,87,,,,,,,1.0,0.7,0.7*20
$GPGSV,4,1,15,01,34,060,31,04,45,074,30,06,20,191,17,07,43,135,30*70
$GPGSV,4,2,15,08,23,133,29,09,02,167,17,11,19,045,23,13,04,167,17*7D
$GPGSV,4,3,15,17,62,286,22,20,05,115,25,26,26,284,20,28,42,001,28*7A
$GPGSV,4,4,15,30,76,104,30,51,,,30,15,,,*4A
$GLGSV,2,1,08,74,37,113,29,,,,19,86,66,254,27,76,16,334,16*54
$GLGSV,2,2,08,75,59,023,26,84,02,028,16,87,15,217,22,85,46,012,31*64
$GPGGA,142537.0,1928.642647,N,09905.662836,W,1,11,0.7,2244.2,M,0.0,M,,*40
$GNGNS,142537.0,1928.642647,N,09905.662836,W,AA,17,0.7,2244.2,0.0,,*72
$GPVTG,339.7,T,339.7,M,0.0,N,0.0,K,A*23
$GPRMC,142537.0,A,1928.642647,N,09905.662836,W,0.0,339.7,260914,0.0,E,A*1A
$GPGSA,A,2,01,04,06,07,08,11,17,20,26,28,30,,1.0,0.7,0.7*37
$GNGSA,A,2,01,04,06,07,08,11,17,20,26,28,30,,1.0,0.7,0.7*29
$GNGSA,A,2,74,75,76,85,86,87,,,,,,,1.0,0.7,0.7*20
$GPGSV,4,1,15,01,34,060,30,04,45,074,29,06,20,191,17,07,43,135,35*7C
$GPGSV,4,2,15,08,23,133,31,09,02,167,17,11,19,045,26,13,04,167,17*71
$GPGSV,4,3,15,17,62,286,28,20,05,115,24,26,26,284,20,28,42,001,27*7E
$GPGSV,4,4,15,30,76,104,26,51,,,30,15,,,*4D
$GLGSV,2,1,08,74,37,113,33,,,,16,86,66,254,21,76,16,334,22*51
$GLGSV,2,2,08,75,59,023,28,84,02,028,14,87,15,217,18,85,46,012,29*68
$GPGGA,142538.0,1928.642648,N,09905.662836,W,1,11,0.7,2244.2,M,0.0,M,,*40
$GNGNS,142538.0,1928.642648,N,09905.662836,W,AA,17,0.7,2244.2,0.0,,*72
$GPVTG,339.7,T,339.7,M,0.0,N,0.0,K,A*23
$GPRMC,142538.0,A,1928.642648,N,09905.662836,W,0.0,339.7,260914,0.0,E,A*1A
$GPGSA,A,2,01,04,06,07,08,11,17,20,26,28,30,,1.0,0.7,0.7*37
$GNGSA,A,2,01,04,06,07,08,11,17,20,26,28,30,,1.0,0.7,0.7*29
$GNGSA,A,2,74,75,76,85,86,87,,,,,,,1.0,0.7,0.7*20
$GPGSV,4,1,15,01,34,060,29,04,45,074,30,06,20,191,17,07,43,135,38*71
$GPGSV,4,2,15,08,23,133,33,09,02,167,17,11,19,045,30,13,04,167,17*74
$GPGSV,4,3,15,17,62,286,25,20,05,115,22,26,26,284,19,28,42,001,26*7E
$GPGSV,4,4,15,30,76,104,26,51,,,30,15,,,*4D
$GLGSV,2,1,08,74,37,113,31,,,,20,86,66,254,29,76,16,334,25*59
$GLGSV,2,2,08,75,59,023,24,84,02,028,13,87,15,217,25,85,46,012,34*61
$GPGGA,142539.0,1928.642647,N,09905.662835,W,1,11,0.7,2244.2,M,0.0,M,,*4D
$GNGNS,142539.0,1928.642647,N,09905.662835,W,AA,17,0.7,2244.2,0.0,,*7F
$GPVTG,339.7,T,339.7,M,0.0,N,0.0,K,A*23
$GPRMC,142539.0,A,1928.642647,N,09905.662835,W,0.0,339.7,260914,0.0,E,A*17
$GPGSA,A,2,01,04,06,07,08,11,17,20,26,28,30,,1.0,0.7,0.7*37
$GNGSA,A,2,01,04,06,07,08,11,17,20,26,28,30,,1.0,0.7,0.7*29
$GNGSA,A,2,74,75,76,85,86,87,,,,,,,1.0,0.7,0.7*20
$GPGSV,4,1,15,01,34,060,32,04,45,074,32,06,20,191,17,07,43,135,38*79
$GPGSV,4,2,15,08,23,133,32,09,02,167,17,11,19,045,26,13,04,167,23*75
$GPGSV,4,3,15,17,62,286,17,20,05,115,22,26,26,284,22,28,42,001,25*74
$GPGSV,4,4,15,30,76,104,31,51,,,30,15,,,*4B
$GLGSV,2,1,08,74,37,113,33,,,,23,86,66,254,28,76,16,334,26*5A
$GLGSV,2,2,08,75,59,023,29,84,02,028,13,87,15,217,23,85,46,012,34*6A
$GPGGA,142540.0,1928.642647,N,09905.662834,W,1,12,0.6,2244.2,M,0.0,M,,*40
$GNGNS,142540.0,1928.642647,N,09905.662834,W,AA,18,0.6,2244.2,0.0,,*7E
$GPVTG,339.7,T,339.7,M,0.0,N,0.0,K,A*23
$GPRMC,142540.0,A,1928.642647,N,09905.662834,W,0.0,339.7,260914,0.0,E,A*18
$GPGSA,A,2,01,04,06,07,08,11,13,17,20,26,28,30,0.9,0.6,0.7*3C
$GNGSA,A,2,01,04,06,07,08,11,13,17,20,26,28,30,0.9,0.6,0.7*22
$GNGSA,A,2,74,75,76,85,86,87,,,,,,,0.9,0.6,0.7*29
$GPGSV,4,1,15,01,34,060,35,04,45,074,31,07,43,135,36,08,23,133,35*76
$GPGSV,4,2,15,09,02,167,17,11,19,045,30,13,04,167,23,17,62,286,24*73
$GPGSV,4,3,15,20,05,115,26,26,26,284,24,28,42,001,31,30,76,104,31*7E
$GPGSV,4,4,15,51,,,30,06,20,191,,15,,,*43
$GLGSV,2,1,08,74,37,113,31,,,,23,86,66,254,26,76,16,334,26*56
$GLGSV,2,2,08,75,59,023,24,84,02,028,13,87,15,217,23,85,46,012,31*62
$GPGGA,142541.0,1928.642635,N,09905.662842,W,1,12,0.6,2244.2,M,0.0,M,,*45
$GNGNS,142541.0,1928.642635,N,09905.662842,W,AA,18,0.6,2244.2,0.0,,*7B
$GPVTG,339.7,T,339.7,M,0.0,N,0.0,K,A*23
$GPRMC,142541.0,A,1928.642635,N,09905.662842,W,0.0,339.7,260914,0.0,E,A*1D
$GPGSA,A,2,01,04,06,07,08,11,13,17,20,26,28,30,0.9,0.6,0.7*3C
$GNGSA,A,2,01,04,06,07,08,11,13,17,20,26,28,30,0.9,0.6,0.7*22
$GNGSA,A,2,74,75,76,85,86,87,,,,,,,0.9,0.6,0.7*29
$GPGSV,4,1,15,01,34,060,27,04,45,074,32,07,43,135,37,08,23,133,32*70
$GPGSV,4,2,15,09,02,167,15,11,19,045,17,13,04,167,23,17,62,286,24*74
$GPGSV,4,3,15,20,05,115,24,26,26,284,29,28,42,001,35,30,76,104,27*72
$GPGSV,4,4,15,51,,,30,06,20,191,,15,,,*43
$GLGSV,2,1,08,74,37,113,33,,,,21,86,66,254,25,76,16,334,22*51
$GLGSV,2,2,08,75,59,023,23,84,02,028,13,87,15,217,23,85,46,012,30*64
$GPGGA,142542.0,1928.642601,N,09905.662755,W,1,12,0.6,2244.2,M,0.0,M,,*48
$GNGNS,142542.0,1928.642601,N,09905.662755,W,AA,18,0.6,2244.2,0.0,,*76
$GPVTG,339.7,T,339.7,M,0.5,N,1.0,K,A*27
$GPRMC,142542.0,A,1928.642601,N,09905.662755,W,0.5,339.7,260914,0.0,E,A*15
$GPGSA,A,2,01,04,06,07,08,11,13,17,20,26,28,30,0.9,0.6,0.7*3C
$GNGSA,A,2,01,04,06,07,08,11,13,17,20,26,28,30,0.9,0.6,0.7*22
$GNGSA,A,2,74,75,76,85,86,87,,,,,,,0.9,0.6,0.7*29
$GPGSV,4,1,15,01,34,060,29,04,45,074,28,07,43,135,39,08,23,133,33*7A
$GPGSV,4,2,15,09,02,167,15,11,19,045,30,13,04,167,22,17,62,286,23*77
$GPGSV,4,3,15,20,05,115,27,26,26,284,23,28,42,001,34,30,76,104,22*7F
$GPGSV,4,4,15,51,,,30,06,20,191,,15,,,*43
$GLGSV,2,1,08,74,37,113,34,,,,25,86,66,254,25,76,16,334,26*56
$GLGSV,2,2,08,75,59,023,27,84,02,028,13,87,15,217,21,85,46,012,34*66
$GPGGA,142543.0,1928.641997,N,09905.661536,W,1,12,0.6,2243.8,M,0.0,M,,*43
$GNGNS,142543.0,1928.641997,N,09905.661536,W,AA,18,0.6,2243.8,0.0,,*7D
$GPVTG,115.4,T,115.4,M,3.5,N,6.5,K,A*26
$GPRMC,142543.0,A,1928.641997,N,09905.661536,W,3.5,115.4,260914,0.0,E,A*1F
$GPGSA,A,2,01,04,06,07,08,11,13,17,20,26,28,30,0.9,0.6,0.7*3C
$GNGSA,A,2,01,04,06,07,08,11,13,17,20,26,28,30,0.9,0.6,0.7*22
$GNGSA,A,2,74,75,76,85,86,87,,,,,,,0.9,0.6,0.7*29
$GPGSV,4,1,15,01,34,060,32,04,45,074,26,06,20,191,21,07,43,135,38*79
$GPGSV,4,2,15,08,23,133,32,09,02,167,16,11,19,045,26,13,04,167,22*75
$GPGSV,4,3,15,17,62,286,25,20,05,115,25,26,26,284,29,28,42,001,36*7B
$GPGSV,4,4,15,30,76,104,26,51,,,30,15,,,*4D
$GLGSV,2,1,08,74,37,113,36,,,,26,86,66,254,25,76,16,334,30*50
$GLGSV,2,2,08,75,59,023,28,84,02,028,13,87,15,217,19,85,46,012,32*64
$GPGGA,142544.0,1928.641489,N,09905.658761,W,1,12,0.6,2243.7,M,0.0,M,,*43
$GNGNS,142544.0,1928.641489,N,09905.658761,W,AA,18,0.6,2243.7,0.0,,*7D
$GPVTG,105.6,T,105.6,M,8.9,N,16.4,K,A*11
$GPRMC,142544.0,A,1928.641489,N,09905.658761,W,8.9,105.6,260914,0.0,E,A*14
$GPGSA,A,2,01,04,06,07,08,11,13,17,20,26,28,30,0.9,0.6,0.7*3C
$GNGSA,A,2,01,04,06,07,08,11,13,17,20,26,28,30,0.9,0.6,0.7*22
$GNGSA,A,2,74,75,76,85,86,87,,,,,,,0.9,0.6,0.7*29
$GPGSV,4,1,15,01,34,060,34,04,45,074,26,06,20,191,20,07,43,135,38*7E
$GPGSV,4,2,15,08,23,133,34,09,02,167,16,11,19,045,27,13,04,167,21*71
$GPGSV,4,3,15,17,62,286,25,20,05,115,26,26,26,284,32,28,42,001,35*71
$GPGSV,4,4,15,30,76,104,24,51,,,30,15,,,*4F
$GLGSV,2,1,08,74,37,113,33,,,,28,86,66,254,24,76,16,334,30*5A
$GLGSV,2,2,08,75,59,023,28,84,02,028,13,87,15,217,21,85,46,012,33*6E
$GPGGA,142545.0,1928.640156,N,09905.655821,W,1,12,0.6,2242.6,M,0.0,M,,*42
$GNGNS,142545.0,1928.640156,N,09905.655821,W,AA,18,0.6,2242.6,0.0,,*7C
$GPVTG,106.6,T,106.6,M,13.0,N,24.0,K,A*27
$GPRMC,142545.0,A,1928.640156,N,09905.655821,W,13.0,106.6,260914,0.0,E,A*25
$GPGSA,A,2,01,04,06,07,08,11,13,17,20,26,28,30,0.9,0.6,0.7*3C
$GNGSA,A,2,01,04,06,07,08,11,13,17,20,26,28,30,0.9,0.6,0.7*22
$GNGSA,A,2,74,75,76,85,86,87,,,,,,,0.9,0.6,0.7*29
$GPGSV,4,1,15,01,34,060,36,04,45,074,24,07,43,135,38,08,23,133,38*72
$GPGSV,4,2,15,09,02,167,16,11,19,045,28,13,04,167,20,17,62,286,26*7A
$GPGSV,4,3,15,20,05,115,24,26,26,284,31,28,42,001,35,30,76,104,25*79
$GPGSV,4,4,15,51,,,30,06,20,191,,15,,,*43
$GLGSV,2,1,08,74,37,113,31,,,,26,86,66,254,23,76,16,334,26*56
$GLGSV,2,2,08,75,59,023,26,84,02,028,13,87,15,217,20,85,46,012,35*67
$GPGGA,142546.0,1928.638666,N,09905.651099,W,1,12,0.6,2242.6,M,0.0,M,,*45
$GNGNS,142546.0,1928.638666,N,09905.651099,W,AA,18,0.6,2242.6,0.0,,*7B
$GPVTG,108.2,T,108.2,M,16.4,N,30.4,K,A*27
$GPRMC,142546.0,A,1928.638666,N,09905.651099,W,16.4,108.2,260914,0.0,E,A*29
$GPGSA,A,2,01,04,06,07,08,11,13,17,20,26,28,30,0.9,0.6,0.7*3C
$GNGSA,A,2,01,04,06,07,08,11,13,17,20,26,28,30,0.9,0.6,0.7*22
$GNGSA,A,2,74,75,76,85,86,87,,,,,,,0.9,0.6,0.7*29
$GPGSV,4,1,15,01,34,060,31,04,45,074,25,07,43,135,38,08,23,133,35*79
$GPGSV,4,2,15,09,02,167,15,11,19,045,26,13,04,167,20,17,62,286,26*77
$GPGSV,4,3,15,20,05,115,20,26,26,284,32,28,42,001,35,30,76,104,23*78
$GPGSV,4,4,15,51,,,30,06,20,191,,15,,,*43
$GLGSV,2,1,08,74,37,113,33,,,,23,86,66,254,22,76,16,334,25*53
$GLGSV,2,2,08,75,59,023,26,84,02,028,16,87,15,217,18,85,46,012,34*68
$GPGGA,142547.0,1928.637079,N,09905.646048,W,1,12,0.6,2241.9,M,0.0,M,,*45
$GNGNS,142547.0,1928.637079,N,09905.646048,W,AA,18,0.6,2241.9,0.0,,*7B
$GPVTG,106.8,T,106.8,M,19.5,N,36.1,K,A*2A
$GPRMC,142547.0,A,1928.637079,N,09905.646048,W,19.5,106.8,260914,0.0,E,A*2F
$GPGSA,A,2,01,04,06,07,08,11,13,17,20,26,28,30,0.9,0.6,0.7*3C
$GNGSA,A,2,01,04,06,07,08,11,13,17,20,26,28,30,0.9,0.6,0.7*22
$GNGSA,A,2,74,75,76,85,86,87,,,,,,,0.9,0.6,0.7*29
$GPGSV,4,1,15,01,34,060,33,04,45,074,25,07,43,135,40,08,23,133,37*76
$GPGSV,4,2,15,09,02,167,15,11,19,045,27,13,04,167,20,17,62,286,26*76
$GPGSV,4,3,15,20,05,115,21,26,26,284,31,28,42,001,35,30,76,104,22*7B
$GPGSV,4,4,15,51,,,30,06,20,191,,15,,,*43
$GLGSV,2,1,08,74,37,113,33,,,,24,86,66,254,20,76,16,334,28*5B
$GLGSV,2,2,08,75,59,023,26,84,02,028,22,87,15,217,18,85,46,012,32*69
$GPGGA,142548.0,1928.635493,N,09905.639351,W,1,12,0.6,2241.7,M,0.0,M,,*45
$GNGNS,142548.0,1928.635493,N,09905.639351,W,AA,18,0.6,2241.7,0.0,,*7B
$GPVTG,105.9,T,105.9,M,22.4,N,41.4,K,A*26
$GPRMC,142548.0,A,1928.635493,N,09905.639351,W,22.4,105.9,260914,0.0,E,A*2A
$GPGSA,A,2,01,04,06,07,08,11,13,17,20,26,28,30,0.9,0.6,0.7*3C
$GNGSA,A,2,01,04,06,07,08,11,13,17,20,26,28,30,0.9,0.6,0.7*22
$GNGSA,A,2,74,75,76,85,86,87,,,,,,,0.9,0.6,0.7*29
$GPGSV,4,1,15,01,34,060,33,04,45,074,28,07,43,135,39,08,23,133,34*76
$GPGSV,4,2,15,09,02,167,15,11,19,045,28,13,04,167,18,17,62,286,26*72
$GPGSV,4,3,15,20,05,115,26,26,26,284,32,28,42,001,34,30,76,104,26*7A
$GPGSV,4,4,15,51,,,30,06,20,191,,15,,,*43
$GLGSV,2,1,08,74,37,113,31,,,,17,86,66,254,21,76,16,334,28*58
$GLGSV,2,2,08,75,59,023,28,84,02,028,22,87,15,217,20,85,46,012,32*6C
$GPGGA,142549.0,1928.633390,N,09905.632295,W,1,12,0.6,2241.8,M,0.0,M,,*4B
$GNGNS,142549.0,1928.633390,N,09905.632295,W,AA,18,0.6,2241.8,0.0,,*75
$GPVTG,106.6,T,106.6,M,24.2,N,44.7,K,A*20
$GPRMC,142549.0,A,1928.633390,N,09905.632295,W,24.2,106.6,260914,0.0,E,A*27
$GPGSA,A,2,01,04,06,07,08,11,13,17,20,26,28,30,0.9,0.6,0.7*3C
$GNGSA,A,2,01,04,06,07,08,11,13,17,20,26,28,30,0.9,0.6,0.7*22
$GNGSA,A,2,74,75,76,85,86,87,,,,,,,0.9,0.6,0.7*29
$GPGSV,4,1,15,01,34,060,33,04,45,074,24,06,20,191,20,07,43,135,38*7B
$GPGSV,4,2,15,08,23,133,36,09,02,167,15,11,19,045,27,13,04,167,18*7A
$GPGSV,4,3,15,17,62,286,23,20,05,115,23,26,26,284,31,28,42,001,33*77
$GPGSV,4,4,15,30,76,104,21,51,,,30,15,,,*4A
$GLGSV,2,1,08,74,37,113,32,,,,17,86,66,254,21,76,16,334,23*50
$GLGSV,2,2,08,75,59,023,27,84,02,028,22,87,15,217,23,85,46,012,31*63
$GPGGA,142550.0,1928.631250,N,09905.624409,W,1,12,0.6,2241.4,M,0.0,M,,*44
$GNGNS,142550.0,1928.631250,N,09905.624409,W,AA,18,0.6,2241.4,0.0,,*7A
$GPVTG,105.6,T,105.6,M,26.8,N,49.7,K,A*25
$GPRMC,142550.0,A,1928.631250,N,09905.624409,W,26.8,105.6,260914,0.0,E,A*2F
$GPGSA,A,2,01,04,06,07,08,11,13,17,20,26,28,30,0.9,0.6,0.7*3C
$GNGSA,A,2,01,04,06,07,08,11,13,17,20,26,28,30,0.9,0.6,0.7*22
$GNGSA,A,2,74,75,76,85,86,87,,,,,,,0.9,0.6,0.7*29
$GPGSV,4,1,15,01,34,060,35,04,45,074,30,06,20,191,19,07,42,136,37*7F
$GPGSV,4,2,15,08,23,133,34,09,02,167,15,11,19,045,27,13,04,167,18*78
$GPGSV,4,3,15,17,62,286,25,20,05,115,16,26,26,284,31,28,42,001,35*71
$GPGSV,4,4,15,30,76,104,25,51,,,30,15,,,*4E
$GLGSV,2,1,08,74,37,113,32,,,,18,86,66,254,22,76,16,334,26*59
$GLGSV,2,2,08,75,59,023,28,84,02,028,22,87,15,217,22,85,46,012,28*65
$GPGGA,142551.0,1928.629107,N,09905.616675,W,1,12,0.6,2241.2,M,0.0,M,,*43
$GNGNS,142551.0,1928.629107,N,09905.616675,W,AA,18,0.6,2241.2,0.0,,*7D
$GPVTG,105.8,T,105.8,M,28.8,N,53.4,K,A*23
$GPRMC,142551.0,A,1928.629107,N,09905.616675,W,28.8,105.8,260914,0.0,E,A*2E
$GPGSA,A,2,01,04,06,07,08,11,13,17,20,26,28,30,0.9,0.6,0.7*3C
$GNGSA,A,2,01,04,06,07,08,11,13,17,20,26,28,30,0.9,0.6,0.7*22
$GNGSA,A,2,74,75,76,85,86,87,,,,,,,0.9,0.6,0.7*29
$GPGSV,4,1,15,01,34,060,31,04,45,074,33,06,20,191,25,07,42,136,37*77
$GPGSV,4,2,15,08,23,133,36,09,02,167,15,11,19,045,30,13,04,167,17*73
$GPGSV,4,3,15,17,62,286,22,20,05,115,20,26,26,284,31,28,42,001,35*73
$GPGSV,4,4,15,30,76,104,26,51,,,30,15,,,*4D
$GLGSV,2,1,08,74,37,113,35,,,,27,86,66,254,23,76,16,334,28*5D
$GLGSV,2,2,08,75,59,023,27,84,02,028,22,87,15,217,22,85,46,012,27*65
$GPGGA,142552.0,1928.626493,N,09905.607700,W,1,11,0.7,2241.0,M,0.0,M,,*44
$GNGNS,142552.0,1928.626493,N,09905.607700,W,AA,17,0.7,2241.0,0.0,,*76
$GPVTG,106.9,T,106.9,M,30.6,N,56.7,K,A*22
$GPRMC,142552.0,A,1928.626493,N,09905.607700,W,30.6,106.9,260914,0.0,E,A*2C
$GPGSA,A,2,01,04,06,07,08,11,17,20,26,28,30,,1.0,0.7,0.7*37
$GNGSA,A,2,01,04,06,07,08,11,17,20,26,28,30,,1.0,0.7,0.7*29
$GNGSA,A,2,74,75,76,85,86,87,,,,,,,1.0,0.7,0.7*20
$GPGSV,4,1,15,01,34,060,30,04,45,074,33,06,20,191,23,07,42,136,40*70
$GPGSV,4,2,15,08,23,133,35,09,02,167,15,11,19,045,25,13,04,167,17*74
$GPGSV,4,3,15,17,62,286,24,20,05,115,23,26,26,284,30,28,42,001,31*73
$GPGSV,4,4,15,30,76,104,28,51,,,32,15,,,*41
$GLGSV,2,1,08,74,37,113,33,,,,23,86,66,254,23,76,16,334,24*53
$GLGSV,2,2,08,75,59,023,26,84,02,028,22,87,15,217,20,85,46,012,25*64
$GPGGA,142553.0,1928.623939,N,09905.598785,W,1,11,0.7,2240.8,M,0.0,M,,*4C
$GNGNS,142553.0,1928.623939,N,09905.598785,W,AA,17,0.7,2240.8,0.0,,*7E
$GPVTG,106.2,T,106.2,M,32.1,N,59.5,K,A*2A
$GPRMC,142553.0,A,1928.623939,N,09905.598785,W,32.1,106.2,260914,0.0,E,A*23
$GPGSA,A,2,01,04,06,07,08,11,17,20,26,28,30,,1.0,0.7,0.7*37
$GNGSA,A,2,01,04,06,07,08,11,17,20,26,28,30,,1.0,0.7,0.7*29
$GNGSA,A,2,74,75,76,85,86,87,,,,,,,1.0,0.7,0.7*20
$GPGSV,4,1,15,01,34,060,32,04,45,074,36,06,20,191,27,07,42,136,38*7C
$GPGSV,4,2,15,08,23,133,37,09,02,167,15,11,19,045,30,13,04,167,17*72
$GPGSV,4,3,15,17,62,286,25,20,05,115,27,26,26,284,26,28,42,001,32*72
$GPGSV,4,4,15,30,76,104,24,51,,,30,15,,,*4F
$GLGSV,2,1,08,74,37,113,36,,,,23,86,66,254,24,76,16,334,19*5F
$GLGSV,2,2,08,75,59,023,26,84,02,028,22,87,15,217,27,85,46,012,28*6E
$GPGGA,142554.0,1928.621459,N,09905.589432,W,1,11,0.7,2240.2,M,0.0,M,,*47
$GNGNS,142554.0,1928.621459,N,09905.589432,W,AA,17,0.7,2240.2,0.0,,*75
$GPVTG,106.3,T,106.3,M,32.7,N,60.5,K,A*26
$GPRMC,142554.0,A,1928.621459,N,09905.589432,W,32.7,106.3,260914,0.0,E,A*25
$GPGSA,A,2,01,04,06,07,08,11,17,20,26,28,30,,1.0,0.7,0.7*37
$GNGSA,A,2,01,04,06,07,08,11,17,20,26,28,30,,1.0,0.7,0.7*29
$GNGSA,A,2,74,75,76,85,86,87,,,,,,,1.0,0.7,0.7*20
$GPGSV,4,1,15,01,34,060,30,04,45,074,35,06,20,191,24,07,42,136,38*7E
$GPGSV,4,2,15,08,23,133,35,09,02,167,15,11,19,045,22,13,04,167,16*72
$GPGSV,4,3,15,17,62,286,23,20,05,115,29,26,26,284,25,28,42,001,29*73
$GPGSV,4,4,15,30,76,104,21,51,,,30,15,,,*4A
$GLGSV,2,1,08,74,37,113,36,,,,23,86,66,254,23,76,16,334,19*58
$GLGSV,2,2,08,75,59,023,23,84,02,028,22,87,15,217,26,85,46,012,25*67
$GPGGA,142555.0,1928.619098,N,09905.581006,W,1,11,0.7,2240.4,M,0.0,M,,*49
$GNGNS,142555.0,1928.619098,N,09905.581006,W,AA,17,0.7,2240.4,0.0,,*7B
$GPVTG,106.5,T,106.5,M,31.0,N,57.5,K,A*26
$GPRMC,142555.0,A,1928.619098,N,09905.581006,W,31.0,106.5,260914,0.0,E,A*2F
$GPGSA,A,2,01,04,06,07,08,11,17,20,26,28,30,,1.0,0.7,0.7*37
$GNGSA,A,2,01,04,06,07,08,11,17,20,26,28,30,,1.0,0.7,0.7*29
$GNGSA,A,2,74,75,76,85,86,87,,,,,,,1.0,0.7,0.7*20
$GPGSV,4,1,15,01,34,060,30,04,45,074,31,06,20,191,23,07,42,136,36*73
$GPGSV,4,2,15,08,23,133,33,09,02,167,15,11,19,045,33,13,04,167,19*7B
$GPGSV,4,3,15,17,62,286,23,20,05,115,28,26,26,284,28,28,42,001,29*7F
$GPGSV,4,4,15,30,76,104,24,51,,,30,15,,,*4F
$GLGSV,2,1,08,74,37,113,33,,,,23,86,66,254,26,76,16,334,25*57
$GLGSV,2,2,08,75,59,023,25,84,02,028,22,87,15,217,22,85,46,012,27*67
$GPGGA,142556.0,1928.617025,N,09905.572478,W,1,11,0.7,2240.6,M,0.0,M,,*41
$GNGNS,142556.0,1928.617025,N,09905.572478,W,AA,17,0.7,2240.6,0.0,,*73
$GPVTG,104.2,T,104.2,M,29.4,N,54.4,K,A*29
$GPRMC,142556.0,A,1928.617025,N,09905.572478,W,29.4,104.2,260914,0.0,E,A*2D
$GPGSA,A,2,01,04,06,07,08,11,17,20,26,28,30,,1.0,0.7,0.7*37
$GNGSA,A,2,01,04,06,07,08,11,17,20,26,28,30,,1.0,0.7,0.7*29
$GNGSA,A,2,74,75,76,85,86,87,,,,,,,1.0,0.7,0.7*20
$GPGSV,4,1,15,01,34,060,31,04,45,074,26,06,20,191,21,07,42,136,38*78
$GPGSV,4,2,15,08,23,133,35,09,02,167,13,11,19,045,35,13,04,167,22*75
$GPGSV,4,3,15,17,62,286,23,20,05,115,26,26,26,284,29,28,42,001,34*7C
$GPGSV,4,4,15,30,76,104,25,51,,,30,15,,,*4E
$GLGSV,2,1,08,74,37,113,33,,,,14,86,66,254,25,76,16,334,28*5D
$GLGSV,2,2,08,75,59,023,26,84,02,028,22,87,15,217,22,85,46,012,27*64
$GPGGA,142557.0,1928.614494,N,09905.564312,W,1,12,0.6,2240.2,M,0.0,M,,*47
$GNGNS,142557.0,1928.614494,N,09905.564312,W,AA,18,0.6,2240.2,0.0,,*79
$GPVTG,107.6,T,107.6,M,29.2,N,54.1,K,A*2A
$GPRMC,142557.0,A,1928.614494,N,09905.564312,W,29.2,107.6,260914,0.0,E,A*2C
$GPGSA,A,2,01,04,06,07,08,11,13,17,20,26,28,30,0.9,0.6,0.7*3C
$GNGSA,A,2,01,04,06,07,08,11,13,17,20,26,28,30,0.9,0.6,0.7*22
$GNGSA,A,2,74,75,76,85,86,87,,,,,,,0.9,0.6,0.7*29
$GPGSV,4,1,15,01,34,060,35,04,45,074,27,06,20,191,23,07,42,136,37*70
$GPGSV,4,2,15,08,23,133,36,09,02,167,19,11,19,045,35,13,04,167,22*7C
$GPGSV,4,3,15,17,62,286,24,20,05,115,21,26,26,284,28,28,42,001,34*7D
$GPGSV,4,4,15,30,76,104,25,51,,,30,15,,,*4E
$GLGSV,2,1,08,74,37,113,30,,,,16,86,66,254,24,76,16,334,25*50
$GLGSV,2,2,08,75,59,023,29,84,02,028,22,87,15,217,24,85,46,012,30*6B
$GPGGA,142558.0,1928.611689,N,09905.556222,W,1,12,0.6,2240.2,M,0.0,M,,*40
$GNGNS,142558.0,1928.611689,N,09905.556222,W,AA,18,0.6,2240.2,0.0,,*7E
$GPVTG,110.2,T,110.2,M,28.9,N,53.5,K,A*23
$GPRMC,142558.0,A,1928.611689,N,09905.556222,W,28.9,110.2,260914,0.0,E,A*23
$GPGSA,A,2,01,04,06,07,08,11,13,17,20,26,28,30,0.9,0.6,0.7*3C
$GNGSA,A,2,01,04,06,07,08,11,13,17,20,26,28,30,0.9,0.6,0.7*22
$GNGSA,A,2,74,75,76,85,86,87,,,,,,,0.9,0.6,0.7*29
$GPGSV,4,1,15,01,34,060,32,04,45,074,29,06,20,191,23,07,42,136,37*79
$GPGSV,4,2,15,08,23,133,35,09,02,167,19,11,19,045,31,13,04,167,24*7D
$GPGSV,4,3,15,17,62,286,24,20,05,115,22,26,26,284,24,28,42,001,34*72
$GPGSV,4,4,15,30,76,104,28,51,,,30,15,,,*43
$GLGSV,2,1,08,74,37,113,28,,,,19,86,66,254,20,76,16,334,25*52
$GLGSV,2,2,08,75,59,023,26,84,02,028,22,87,15,217,23,85,46,012,32*61
$GPGGA,142559.0,1928.608721,N,09905.548100,W,1,12,0.6,2239.6,M,0.0,M,,*4C
$GNGNS,142559.0,1928.608721,N,09905.548100,W,AA,18,0.6,2239.6,0.0,,*72
$GPVTG,112.4,T,112.4,M,29.9,N,55.3,K,A*22
$GPRMC,142559.0,A,1928.608721,N,09905.548100,W,29.9,112.4,260914,0.0,E,A*20
$GPGSA,A,2,01,04,06,07,08,11,13,17,20,26,28,30,0.9,0.6,0.7*3C
$GNGSA,A,2,01,04,06,07,08,11,13,17,20,26,28,30,0.9,0.6,0.7*22
$GNGSA,A,2,74,75,76,85,86,87,,,,,,,0.9,0.6,0.7*29
$GPGSV,4,1,15,01,34,060,32,04,45,074,27,06,20,191,22,07,42,136,40*76
$GPGSV,4,2,15,08,23,133,37,09,02,167,17,11,19,045,32,13,04,167,21*77
$GPGSV,4,3,15,17,62,286,24,20,05,115,26,26,26,284,24,28,42,001,33*71
$GPGSV,4,4,15,30,76,104,27,51,,,30,15,,,*4C
$GLGSV,2,1,08,74,37,113,26,,,,27,86,66,254,22,76,16,334,29*5F
$GLGSV,2,2,08,75,59,023,23,84,02,028,12,87,15,217,25,85,46,012,35*66
$GPGGA,142600.0,1928.605528,N,09905.539764,W,1,12,0.6,2239.0,M,0.0,M,,*41
$GNGNS,142600.0,1928.605528,N,09905.539764,W,AA,18,0.6,2239.0,0.0,,*7F
$GPVTG,112.7,T,112.7,M,29.2,N,54.1,K,A*2A
$GPRMC,142600.0,A,1928.605528,N,09905.539764,W,29.2,112.7,260914,0.0,E,A*23
$GPGSA,A,2,01,04,06,07,08,11,13,17,20,26,28,30,0.9,0.6,0.7*3C
$GNGSA,A,2,01,04,06,07,08,11,13,17,20,26,28,30,0.9,0.6,0.7*22
$GNGSA,A,2,74,75,76,85,86,87,,,,,,,0.9,0.6,0.7*29
$GPGSV,4,1,15,01,34,060,33,04,45,074,31,06,20,191,23,07,42,136,37*71
$GPGSV,4,2,15,08,23,133,34,09,02,167,17,11,19,045,32,13,04,167,21*74
$GPGSV,4,3,15,17,62,286,22,20,05,115,19,26,26,284,23,28,42,001,34*7B
$GPGSV,4,4,15,30,76,104,27,51,,,30,15,,,*4C
$GLGSV,2,1,08,74,37,113,25,,,,33,86,66,254,26,76,16,334,31*54
$GLGSV,2,2,08,75,59,023,30,84,02,028,22,87,15,217,24,85,46,012,34*67
$GPGGA,142601.0,1928.602800,N,09905.533401,W,1,12,0.6,2238.5,M,0.0,M,,*4E
$GNGNS,142601.0,1928.602800,N,09905.533401,W,AA,18,0.6,2238.5,0.0,,*70
$GPVTG,114.0,T,114.0,M,24.9,N,46.2,K,A*2C
$GPRMC,142601.0,A,1928.602800,N,09905.533401,W,24.9,114.0,260914,0.0,E,A*2F
$GPGSA,A,2,01,04,06,07,08,11,13,17,20,26,28,30,0.9,0.6,0.7*3C
$GNGSA,A,2,01,04,06,07,08,11,13,17,20,26,28,30,0.9,0.6,0.7*22
$GNGSA,A,2,74,75,76,85,86,87,,,,,,,0.9,0.6,0.7*29
$GPGSV,4,1,15,01,34,060,31,04,45,074,35,06,20,191,27,07,42,136,28*7D
$GPGSV,4,2,15,08,23,133,27,09,02,167,17,11,19,045,37,13,04,167,19*78
$GPGSV,4,3,15,17,62,286,21,20,05,115,21,26,26,284,25,28,42,001,35*74
$GPGSV,4,4,15,30,76,104,28,51,,,30,15,,,*43
$GLGSV,2,1,08,74,37,113,28,,,,28,86,66,254,27,76,16,334,28*5A
$GLGSV,2,2,08,75,59,023,31,84,02,028,19,87,15,217,21,85,46,012,33*6C
$GPGGA,142602.0,1928.600012,N,09905.528073,W,1,12,0.6,2238.8,M,0.0,M,,*42
$GNGNS,142602.0,1928.600012,N,09905.528073,W,AA,18,0.6,2238.8,0.0,,*7C
$GPVTG,118.0,T,118.0,M,21.2,N,39.3,K,A*2B
$GPRMC,142602.0,A,1928.600012,N,09905.528073,W,21.2,118.0,260914,0.0,E,A*2C
$GPGSA,A,2,01,04,06,07,08,11,13,17,20,26,28,30,0.9,0.6,0.7*3C
$GNGSA,A,2,01,04,06,07,08,11,13,17,20,26,28,30,0.9,0.6,0.7*22
$GNGSA,A,2,74,75,76,85,86,87,,,,,,,0.9,0.6,0.7*29
$GPGSV,4,1,15,01,34,060,33,04,45,074,27,06,20,191,22,07,42,136,27*76
$GPGSV,4,2,15,08,23,133,28,09,02,167,22,11,19,045,38,13,04,167,26*72
$GPGSV,4,3,15,17,62,286,22,20,05,115,25,26,26,284,21,28,42,001,35*77
$GPGSV,4,4,15,30,76,104,22,51,,,30,15,,,*49
$GLGSV,2,1,08,74,37,113,32,,,,25,86,66,254,24,76,16,334,24*53
$GLGSV,2,2,08,75,59,023,29,84,02,028,21,87,15,217,21,85,46,012,32*6F
$GPGGA,142603.0,1928.596888,N,09905.523162,W,1,12,0.6,2238.7,M,0.0,M,,*41
$GNGNS,142603.0,1928.596888,N,09905.523162,W,AA,18,0.6,2238.7,0.0,,*7F
$GPVTG,122.7,T,122.7,M,20.5,N,37.9,K,A*29
$GPRMC,142603.0,A,1928.596888,N,09905.523162,W,20.5,122.7,260914,0.0,E,A*28
$GPGSA,A,2,01,04,06,07,08,11,13,17,20,26,28,30,0.9,0.6,0.7*3C
$GNGSA,A,2,01,04,06,07,08,11,13,17,20,26,28,30,0.9,0.6,0.7*22
$GNGSA,A,2,74,75,76,85,86,87,,,,,,,0.9,0.6,0.7*29
$GPGSV,4,1,15,01,34,060,32,04,45,074,35,06,20,191,32,07,42,136,29*7B
$GPGSV,4,2,15,08,23,133,36,09,02,167,23,11,19,045,35,13,04,167,31*77
$GPGSV,4,3,15,17,62,286,22,20,05,115,30,26,26,284,25,28,42,001,35*77
$GPGSV,4,4,15,30,76,104,24,51,,,30,15,,,*4F
$GLGSV,2,1,08,74,37,113,38,,,,35,86,66,254,18,76,16,334,19*59
$GLGSV,2,2,08,75,59,023,28,84,02,028,23,87,15,217,21,85,46,012,33*6D
$GPGGA,142604.0,1928.591793,N,09905.519539,W,1,12,0.6,2237.2,M,0.0,M,,*4D
$GNGNS,142604.0,1928.591793,N,09905.519539,W,AA,18,0.6,2237.2,0.0,,*73
$GPVTG,138.1,T,138.1,M,20.6,N,38.2,K,A*2E
$GPRMC,142604.0,A,1928.591793,N,09905.519539,W,20.6,138.1,260914,0.0,E,A*20
$GPGSA,A,2,01,04,06,07,08,11,13,17,20,26,28,30,0.9,0.6,0.7*3C
$GNGSA,A,2,01,04,06,07,08,11,13,17,20,26,28,30,0.9,0.6,0.7*22
$GNGSA,A,2,74,75,76,85,86,87,,,,,,,0.9,0.6,0.7*29
$GPGSV,4,1,15,01,34,060,32,04,45,074,33,06,20,191,31,07,42,136,35*73
$GPGSV,4,2,15,08,23,133,33,09,02,167,23,11,19,045,35,13,04,167,22*70
$GPGSV,4,3,15,17,62,286,25,20,05,115,33,26,26,284,20,28,42,001,33*70
$GPGSV,4,4,15,30,76,104,28,51,,,31,15,,,*42
$GLGSV,2,1,08,74,37,113,36,,,,36,86,66,254,21,76,16,334,19*5E
$GLGSV,2,2,08,75,59,023,31,84,02,028,21,87,15,217,30,85,46,012,32*66
$GPGGA,142605.0,1928.584300,N,09905.523388,W,1,12,0.6,2234.6,M,0.0,M,,*44
$GNGNS,142605.0,1928.584300,N,09905.523388,W,AA,18,0.6,2234.6,0.0,,*7A
$GPVTG,171.0,T,171.0,M,21.4,N,39.5,K,A*2B
$GPRMC,142605.0,A,1928.584300,N,09905.523388,W,21.4,171.0,260914,0.0,E,A*21
$GPGSA,A,2,01,04,06,07,08,11,13,17,20,26,28,30,0.9,0.6,0.7*3C
$GNGSA,A,2,01,04,06,07,08,11,13,17,20,26,28,30,0.9,0.6,0.7*22
$GNGSA,A,2,74,75,76,85,86,87,,,,,,,0.9,0.6,0.7*29
$GPGSV,4,1,15,01,33,059,33,04,45,074,34,06,20,191,23,07,42,136,35*7B
$GPGSV,4,2,15,08,22,133,35,11,18,043,32,13,03,167,27,17,62,288,23*7E
$GPGSV,4,3,15,20,05,113,35,26,26,282,21,28,42,001,33,30,75,106,30*7B
$GPGSV,4,4,15,51,,,31,09,02,167,,15,,,*44
$GLGSV,2,1,08,74,37,113,35,,,,34,86,66,254,23,76,16,334,19*5D
$GLGSV,2,2,08,75,59,023,31,84,02,028,21,87,15,217,35,85,46,012,31*60
$GPGGA,142606.0,1928.577661,N,09905.524488,W,1,12,0.6,2234.2,M,0.0,M,,*4D
$GNGNS,142606.0,1928.577661,N,09905.524488,W,AA,18,0.6,2234.2,0.0,,*73
$GPVTG,184.5,T,184.5,M,23.5,N,43.5,K,A*25
$GPRMC,142606.0,A,1928.577661,N,09905.524488,W,23.5,184.5,260914,0.0,E,A*20
$GPGSA,A,2,01,04,06,07,08,11,13,17,20,26,28,30,0.9,0.6,0.7*3C
$GNGSA,A,2,01,04,06,07,08,11,13,17,20,26,28,30,0.9,0.6,0.7*22
$GNGSA,A,2,74,75,76,85,86,87,,,,,,,0.9,0.6,0.7*29
$GPGSV,4,1,15,01,33,059,34,04,45,074,31,06,20,191,27,07,42,136,29*70
$GPGSV,4,2,15,08,22,133,35,11,18,043,32,13,03,167,23,17,62,288,22*7B
$GPGSV,4,3,15,20,05,113,34,26,26,282,25,28,42,001,31,30,75,106,31*7D
$GPGSV,4,4,15,51,,,31,09,02,167,,15,,,*44
$GLGSV,2,1,08,74,37,113,34,,,,28,86,66,254,24,76,16,334,15*5A
$GLGSV,2,2,08,75,59,025,31,84,02,028,21,87,15,217,35,85,46,012,31*66
$GPGGA,142607.0,1928.571081,N,09905.526020,W,1,12,0.6,2233.8,M,0.0,M,,*4B
$GNGNS,142607.0,1928.571081,N,09905.526020,W,AA,18,0.6,2233.8,0.0,,*75
$GPVTG,195.2,T,195.2,M,25.7,N,47.6,K,A*26
$GPRMC,142607.0,A,1928.571081,N,09905.526020,W,25.7,195.2,260914,0.0,E,A*28
$GPGSA,A,2,01,04,06,07,08,11,13,17,20,26,28,30,0.9,0.6,0.7*3C
$GNGSA,A,2,01,04,06,07,08,11,13,17,20,26,28,30,0.9,0.6,0.7*22
$GNGSA,A,2,74,75,76,85,86,87,,,,,,,0.9,0.6,0.7*29
$GPGSV,4,1,15,01,33,059,32,04,45,074,31,06,20,191,31,07,42,136,32*7B
$GPGSV,4,2,15,08,22,133,31,11,18,043,29,13,03,167,21,17,62,288,27*72
$GPGSV,4,3,15,20,05,113,23,26,26,282,26,28,42,001,31,30,75,106,22*7A
$GPGSV,4,4,15,51,,,31,09,02,167,,15,,,*44
$GLGSV,2,1,08,74,37,113,35,,,,23,86,66,254,25,76,16,334,15*51
$GLGSV,2,2,08,75,59,025,27,84,02,028,21,87,15,217,35,85,46,012,28*69
$GPGGA,142608.0,1928.563601,N,09905.529303,W,1,12,0.6,2232.2,M,0.0,M,,*4F
$GNGNS,142608.0,1928.563601,N,09905.529303,W,AA,18,0.6,2232.2,0.0,,*71
$GPVTG,199.6,T,199.6,M,27.9,N,51.7,K,A*2C
$GPRMC,142608.0,A,1928.563601,N,09905.529303,W,27.9,199.6,260914,0.0,E,A*23
$GPGSA,A,2,01,04,06,07,08,11,13,17,20,26,28,30,0.9,0.6,0.7*3C
$GNGSA,A,2,01,04,06,07,08,11,13,17,20,26,28,30,0.9,0.6,0.7*22
$GNGSA,A,2,74,75,76,85,86,87,,,,,,,0.9,0.6,0.7*29
$GPGSV,4,1,15,01,33,059,34,04,45,074,31,06,20,191,30,07,42,136,32*7C
$GPGSV,4,2,15,08,22,133,31,11,18,043,27,13,03,167,20,17,62,288,28*72
$GPGSV,4,3,15,20,05,113,29,26,26,282,26,28,42,001,33,30,75,106,20*70
$GPGSV,4,4,15,51,,,31,09,02,167,,15,,,*44
$GLGSV,2,1,08,74,37,115,34,,,,23,86,66,254,25,76,16,334,18*5B
$GLGSV,2,2,08,75,59,025,28,84,02,028,21,87,15,217,32,85,46,012,27*6E
$GPGGA,142609.0,1928.556094,N,09905.532298,W,1,12,0.6,2230.0,M,0.0,M,,*4B
$GNGNS,142609.0,1928.556094,N,09905.532298,W,AA,18,0.6,2230.0,0.0,,*75
$GPVTG,199.6,T,199.6,M,30.4,N,56.4,K,A*23
$GPRMC,142609.0,A,1928.556094,N,09905.532298,W,30.4,199.6,260914,0.0,E,A*2C
$GPGSA,A,2,01,04,06,07,08,11,13,17,20,26,28,30,0.9,0.6,0.7*3C
$GNGSA,A,2,01,04,06,07,08,11,13,17,20,26,28,30,0.9,0.6,0.7*22
$GNGSA,A,2,74,75,76,85,86,87,,,,,,,0.9,0.6,0.7*29
$GPGSV,4,1,15,01,33,059,35,04,45,074,26,06,20,191,30,07,42,136,32*7B
$GPGSV,4,2,15,08,22,133,33,11,18,043,26,13,03,167,20,17,62,288,28*71
$GPGSV,4,3,15,20,05,113,27,26,26,282,27,28,42,001,32,30,75,106,19*74
$GPGSV,4,4,15,51,,,31,09,02,167,,15,,,*44
$GLGSV,2,1,08,74,37,115,35,,,,28,86,66,254,22,76,16,334,18*56
$GLGSV,2,2,08,75,59,025,28,84,02,028,21,87,15,217,37,85,46,012,26*6A
$GPGGA,142610.0,1928.547440,N,09905.535676,W,1,12,0.6,2230.0,M,0.0,M,,*4D
$GNGNS,142610.0,1928.547440,N,09905.535676,W,AA,18,0.6,2230.0,0.0,,*73
$GPVTG,199.9,T,199.9,M,32.5,N,60.1,K,A*20
$GPRMC,142610.0,A,1928.547440,N,09905.535676,W,32.5,199.9,260914,0.0,E,A*26
$GPGSA,A,2,01,04,06,07,08,11,13,17,20,26,28,30,0.9,0.6,0.7*3C
$GNGSA,A,2,01,04,06,07,08,11,13,17,20,26,28,30,0.9,0.6,0.7*22
$GNGSA,A,2,74,75,76,85,86,87,,,,,,,0.9,0.6,0.7*29
$GPGSV,4,1,15,01,33,059,36,04,45,074,27,06,20,191,30,07,42,136,33*78
$GPGSV,4,2,15,08,22,133,32,11,18,043,26,13,03,167,20,17,62,288,28*70
$GPGSV,4,3,15,20,05,113,18,26,26,282,18,28,42,001,30,30,75,106,20*7C
$GPGSV,4,4,15,51,,,31,09,02,167,,15,,,*44
$GLGSV,2,1,08,74,37,115,34,,,,25,86,66,254,25,76,16,334,18*5D
$GLGSV,2,2,08,75,59,025,28,84,02,028,21,87,15,217,33,85,46,012,28*60
$GPGGA,142611.0,1928.538828,N,09905.538814,W,1,12,0.6,2230.3,M,0.0,M,,*42
$GNGNS,142611.0,1928.538828,N,09905.538814,W,AA,18,0.6,2230.3,0.0,,*7C
$GPVTG,200.1,T,200.1,M,34.1,N,63.1,K,A*21
$GPRMC,142611.0,A,1928.538828,N,09905.538814,W,34.1,200.1,260914,0.0,E,A*23
$GPGSA,A,2,01,04,06,07,08,11,13,17,20,26,28,30,0.9,0.6,0.7*3C
$GNGSA,A,2,01,04,06,07,08,11,13,17,20,26,28,30,0.9,0.6,0.7*22
$GNGSA,A,2,74,75,76,85,86,87,,,,,,,0.9,0.6,0.7*29
$GPGSV,4,1,15,01,33,059,35,04,45,074,31,06,20,191,29,07,42,136,31*76
$GPGSV,4,2,15,08,22,133,22,11,18,043,30,13,03,167,20,17,62,288,28*76
$GPGSV,4,3,15,20,05,113,18,26,26,282,28,28,42,001,31,30,75,106,20*7E
$GPGSV,4,4,15,51,,,31,09,02,167,,15,,,*44
$GLGSV,2,1,08,74,37,115,27,,,,24,86,66,254,24,76,16,334,19*5E
$GLGSV,2,2,08,75,59,025,28,84,02,028,21,87,15,217,34,85,46,012,26*69
$GPGGA,142612.0,1928.528965,N,09905.542315,W,1,11,0.7,2229.1,M,0.0,M,,*47
$GNGNS,142612.0,1928.528965,N,09905.542315,W,AA,17,0.7,2229.1,0.0,,*75
$GPVTG,199.3,T,199.3,M,35.5,N,65.8,K,A*2B
$GPRMC,142612.0,A,1928.528965,N,09905.542315,W,35.5,199.3,260914,0.0,E,A*2A
$GPGSA,A,2,01,04,06,07,08,11,17,20,26,28,30,,1.0,0.7,0.7*37
$GNGSA,A,2,01,04,06,07,08,11,17,20,26,28,30,,1.0,0.7,0.7*29
$GNGSA,A,2,74,75,76,85,86,87,,,,,,,1.0,0.7,0.7*20
$GPGSV,4,1,15,01,33,059,36,04,45,074,27,06,20,191,26,07,42,136,30*7C
$GPGSV,4,2,15,08,22,133,34,11,18,043,31,13,03,167,20,17,62,288,28*70
$GPGSV,4,3,15,20,05,113,18,26,26,282,31,28,42,001,32,30,75,106,21*74
$GPGSV,4,4,15,51,,,31,09,02,167,,15,,,*44
$GLGSV,2,1,08,74,37,115,35,,,,18,86,66,254,23,76,16,334,19*55
$GLGSV,2,2,08,75,59,025,26,84,02,028,21,87,15,217,33,85,46,012,24*62
$GPGGA,142613.0,1928.519610,N,09905.545985,W,1,11,0.7,2228.7,M,0.0,M,,*4A
$GNGNS,142613.0,1928.519610,N,09905.545985,W,AA,17,0.7,2228.7,0.0,,*78
$GPVTG,200.5,T,200.5,M,36.7,N,68.0,K,A*2F
$GPRMC,142613.0,A,1928.519610,N,09905.545985,W,36.7,200.5,260914,0.0,E,A*24
$GPGSA,A,2,01,04,06,07,08,11,17,20,26,28,30,,1.0,0.7,0.7*37
$GNGSA,A,2,01,04,06,07,08,11,17,20,26,28,30,,1.0,0.7,0.7*29
$GNGSA,A,2,74,75,76,85,86,87,,,,,,,1.0,0.7,0.7*20
$GPGSV,4,1,15,01,33,059,36,04,45,074,30,06,20,191,28,07,42,136,29*7C
$GPGSV,4,2,15,08,22,133,32,11,18,043,32,13,03,167,20,17,62,288,30*7C
$GPGSV,4,3,15,20,05,113,15,26,26,282,26,28,42,001,30,30,75,106,22*7E
$GPGSV,4,4,15,51,,,31,09,02,167,,15,,,*44
$GLGSV,2,1,08,74,37,115,32,,,,18,86,66,254,23,76,16,334,19*52
$GLGSV,2,2,08,75,59,025,26,84,02,028,21,87,15,217,33,85,46,012,29*6F
$GPGGA,142614.0,1928.509966,N,09905.550191,W,1,11,0.7,2227.7,M,0.0,M,,*44
$GNGNS,142614.0,1928.509966,N,09905.550191,W,AA,17,0.7,2227.7,0.0,,*76
$GPVTG,201.7,T,201.7,M,37.6,N,69.7,K,A*29
$GPRMC,142614.0,A,1928.509966,N,09905.550191,W,37.6,201.7,260914,0.0,E,A*26
$GPGSA,A,2,01,04,06,07,08,11,17,20,26,28,30,,1.0,0.7,0.7*37
$GNGSA,A,2,01,04,06,07,08,11,17,20,26,28,30,,1.0,0.7,0.7*29
$GNGSA,A,2,74,75,76,85,86,87,,,,,,,1.0,0.7,0.7*20
$GPGSV,4,1,15,01,33,059,35,04,45,074,28,06,20,191,26,07,42,136,33*73
$GPGSV,4,2,15,08,22,133,30,11,18,043,28,13,03,167,15,17,62,288,28*7A
$GPGSV,4,3,15,20,05,113,15,26,26,282,25,28,42,001,28,30,75,106,22*74
$GPGSV,4,4,15,51,,,31,09,02,167,,15,,,*44
$GLGSV,2,1,08,74,37,115,32,,,,22,86,66,254,26,76,16,334,18*5F
$GLGSV,2,2,08,75,59,025,29,84,02,028,21,87,15,217,32,85,46,012,28*60
$GPGGA,142615.0,1928.500026,N,09905.553856,W,1,11,0.7,2227.2,M,0.0,M,,*45
$GNGNS,142615.0,1928.500026,N,09905.553856,W,AA,17,0.7,2227.2,0.0,,*77
$GPVTG,201.6,T,201.6,M,38.7,N,71.7,K,A*2E
$GPRMC,142615.0,A,1928.500026,N,09905.553856,W,38.7,201.6,260914,0.0,E,A*2D
$GPGSA,A,2,01,04,06,07,08,11,17,20,26,28,30,,1.0,0.7,0.7*37
$GNGSA,A,2,01,04,06,07,08,11,17,20,26,28,30,,1.0,0.7,0.7*29
$GNGSA,A,2,74,75,76,85,86,87,,,,,,,1.0,0.7,0.7*20
$GPGSV,4,1,15,01,33,059,35,04,45,074,29,06,20,191,27,07,42,136,31*71
$GPGSV,4,2,15,08,22,133,31,11,18,043,28,13,03,167,22,17,62,288,26*71
$GPGSV,4,3,15,20,05,113,15,26,26,282,20,28,42,001,28,30,75,106,21*72
$GPGSV,4,4,15,51,,,31,09,02,167,,15,,,*44
$GLGSV,2,1,08,74,37,115,34,,,,29,86,66,254,26,76,16,334,22*5B
$GLGSV,2,2,08,75,59,025,30,84,02,028,21,87,15,217,34,85,46,012,28*6E
$GPGGA,142616.0,1928.489247,N,09905.558417,W,1,11,0.7,2227.1,M,0.0,M,,*42
$GNGNS,142616.0,1928.489247,N,09905.558417,W,AA,17,0.7,2227.1,0.0,,*70
$GPVTG,200.5,T,200.5,M,39.5,N,73.2,K,A*2A
$GPRMC,142616.0,A,1928.489247,N,09905.558417,W,39.5,200.5,260914,0.0,E,A*28
$GPGSA,A,2,01,04,06,07,08,11,17,20,26,28,30,,1.0,0.7,0.7*37
$GNGSA,A,2,01,04,06,07,08,11,17,20,26,28,30,,1.0,0.7,0.7*29
$GNGSA,A,2,74,75,76,85,86,87,,,,,,,1.0,0.7,0.7*20
$GPGSV,4,1,15,01,33,059,36,04,45,074,30,06,20,191,28,07,42,136,32*76
$GPGSV,4,2,15,08,22,133,32,11,18,043,30,13,03,167,24,17,62,288,25*7E
$GPGSV,4,3,15,20,05,113,21,26,26,282,23,28,42,001,31,30,75,106,21*7E
$GPGSV,4,4,15,51,,,31,09,02,167,,15,,,*44
$GLGSV,2,1,08,74,37,115,35,,,,28,86,66,254,25,76,16,334,21*5B
$GLGSV,2,2,08,75,59,025,30,84,02,028,21,87,15,217,32,85,46,012,28*68
$GPGGA,142617.0,1928.478549,N,09905.562550,W,1,11,0.7,2227.2,M,0.0,M,,*4C
$GNGNS,142617.0,1928.478549,N,09905.562550,W,AA,17,0.7,2227.2,0.0,,*7E
$GPVTG,199.4,T,199.4,M,40.4,N,74.8,K,A*28
$GPRMC,142617.0,A,1928.478549,N,09905.562550,W,40.4,199.4,260914,0.0,E,A*28
$GPGSA,A,2,01,04,06,07,08,11,17,20,26,28,30,,1.0,0.7,0.7*37
$GNGSA,A,2,01,04,06,07,08,11,17,20,26,28,30,,1.0,0.7,0.7*29
$GNGSA,A,2,74,75,76,85,86,87,,,,,,,1.0,0.7,0.7*20
$GPGSV,4,1,15,01,33,059,37,04,45,074,29,06,20,191,26,07,42,136,32*71
$GPGSV,4,2,15,08,22,133,31,11,18,043,31,13,03,167,24,17,62,288,28*71
$GPGSV,4,3,15,20,05,113,27,26,26,282,26,28,42,001,32,30,75,106,22*7D
$GPGSV,4,4,15,51,,,31,09,02,167,,15,,,*44
$GLGSV,2,1,08,74,37,115,36,,,,26,86,66,254,24,76,16,334,20*56
$GLGSV,2,2,08,75,59,025,28,84,02,028,21,87,15,217,33,85,46,012,25*6D
$GPGGA,142618.0,1928.467875,N,09905.566642,W,1,11,0.7,2226.8,M,0.0,M,,*40
$GNGNS,142618.0,1928.467875,N,09905.566642,W,AA,17,0.7,2226.8,0.0,,*72
$GPVTG,199.7,T,199.7,M,41.2,N,76.3,K,A*26
$GPRMC,142618.0,A,1928.467875,N,09905.566642,W,41.2,199.7,260914,0.0,E,A*2B
$GPGSA,A,2,01,04,06,07,08,11,17,20,26,28,30,,1.0,0.7,0.7*37
$GNGSA,A,2,01,04,06,07,08,11,17,20,26,28,30,,1.0,0.7,0.7*29
$GNGSA,A,2,74,75,76,85,86,87,,,,,,,1.0,0.7,0.7*20
$GPGSV,4,1,15,01,33,059,36,04,45,074,29,06,20,191,29,07,42,136,33*7E
$GPGSV,4,2,15,08,22,133,31,11,18,043,27,13,03,167,20,17,62,288,28*72
$GPGSV,4,3,15,20,05,113,23,26,26,282,27,28,42,001,32,30,75,106,22*78
$GPGSV,4,4,15,51,,,30,09,02,167,,15,,,*45
$GLGSV,2,1,08,74,37,115,35,,,,26,86,66,254,24,76,16,334,22*57
$GLGSV,2,2,08,75,59,025,29,84,02,028,21,87,15,217,34,85,46,012,22*6C
$GPGGA,142619.0,1928.457231,N,09905.570899,W,1,11,0.7,2226.5,M,0.0,M,,*4A
$GNGNS,142619.0,1928.457231,N,09905.570899,W,AA,17,0.7,2226.5,0.0,,*78
$GPVTG,199.8,T,199.8,M,41.9,N,77.6,K,A*29
$GPRMC,142619.0,A,1928.457231,N,09905.570899,W,41.9,199.8,260914,0.0,E,A*28
$GPGSA,A,2,01,04,06,07,08,11,17,20,26,28,30,,1.0,0.7,0.7*37
$GNGSA,A,2,01,04,06,07,08,11,17,20,26,28,30,,1.0,0.7,0.7*29
$GNGSA,A,2,74,75,76,85,86,87,,,,,,,1.0,0.7,0.7*20
$GPGSV,4,1,15,01,33,059,37,04,45,074,27,06,20,191,26,07,42,136,33*7E
$GPGSV,4,2,15,08,22,133,31,11,18,043,27,13,03,167,23,17,62,288,22*7B
$GPGSV,4,3,15,20,05,113,28,26,26,282,26,28,42,001,29,30,75,106,21*7B
$GPGSV,4,4,15,51,,,30,09,02,167,,15,,,*45
$GLGSV,2,1,08,74,37,115,35,,,,23,86,66,254,25,76,16,334,20*51
$GLGSV,2,2,08,75,59,025,30,84,02,028,21,87,15,217,34,85,46,012,26*60
$GPGGA,142620.0,1928.445661,N,09905.575238,W,1,11,0.7,2226.2,M,0.0,M,,*41
$GNGNS,142620.0,1928.445661,N,09905.575238,W,AA,17,0.7,2226.2,0.0,,*73
$GPVTG,199.7,T,199.7,M,42.7,N,79.0,K,A*2C
$GPRMC,142620.0,A,1928.445661,N,09905.575238,W,42.7,199.7,260914,0.0,E,A*26
$GPGSA,A,2,01,04,06,07,08,11,17,20,26,28,30,,1.0,0.7,0.7*37
$GNGSA,A,2,01,04,06,07,08,11,17,20,26,28,30,,1.0,0.7,0.7*29
$GNGSA,A,2,74,75,76,85,86,87,,,,,,,1.0,0.7,0.7*20
$GPGSV,4,1,15,01,33,059,37,04,45,074,27,06,20,191,25,07,42,136,34*7A
$GPGSV,4,2,15,08,22,133,32,11,18,043,29,13,03,167,27,17,62,288,25*75
$GPGSV,4,3,15,20,05,113,31,26,26,282,23,28,42,001,31,30,75,106,21*7F
$GPGSV,4,4,15,51,,,30,09,02,167,,15,,,*45
$GLGSV,2,1,08,74,37,115,34,,,,26,86,66,254,28,76,16,334,24*5C
$GLGSV,2,2,08,75,59,025,30,84,02,028,21,87,15,217,33,85,46,012,26*67
$GPGGA,142621.0,1928.434142,N,09905.579273,W,1,11,0.7,2225.1,M,0.0,M,,*43
$GNGNS,142621.0,1928.434142,N,09905.579273,W,AA,17,0.7,2225.1,0.0,,*71
$GPVTG,199.4,T,199.4,M,43.2,N,80.0,K,A*2E
$GPRMC,142621.0,A,1928.434142,N,09905.579273,W,43.2,199.4,260914,0.0,E,A*23
$GPGSA,A,2,01,04,06,07,08,11,17,20,26,28,30,,1.0,0.7,0.7*37
$GNGSA,A,2,01,04,06,07,08,11,17,20,26,28,30,,1.0,0.7,0.7*29
$GNGSA,A,2,74,75,76,85,86,87,,,,,,,1.0,0.7,0.7*20
$GPGSV,4,1,15,01,33,059,36,04,45,074,26,06,20,191,28,07,42,136,32*71
$GPGSV,4,2,15,08,22,133,30,11,18,043,28,13,03,167,21,17,62,288,29*7C
$GPGSV,4,3,15,20,05,113,28,26,26,282,27,28,42,001,33,30,75,106,19*7A
$GPGSV,4,4,15,51,,,30,09,02,167,,15,,,*45
$GLGSV,2,1,08,74,37,115,33,,,,27,86,66,254,26,76,16,334,19*5A
$GLGSV,2,2,08,75,59,025,28,84,02,028,21,87,15,217,34,85,46,012,25*6A
$GPGGA,142622.0,1928.422309,N,09905.583578,W,1,11,0.7,2224.6,M,0.0,M,,*45
$GNGNS,142622.0,1928.422309,N,09905.583578,W,AA,17,0.7,2224.6,0.0,,*77
$GPVTG,199.2,T,199.2,M,43.9,N,81.3,K,A*27
$GPRMC,142622.0,A,1928.422309,N,09905.583578,W,43.9,199.2,260914,0.0,E,A*2E
$GPGSA,A,2,01,04,06,07,08,11,17,20,26,28,30,,1.0,0.7,0.7*37
$GNGSA,A,2,01,04,06,07,08,11,17,20,26,28,30,,1.0,0.7,0.7*29
$GNGSA,A,2,74,75,76,85,86,87,,,,,,,1.0,0.7,0.7*20
$GPGSV,4,1,15,01,33,059,35,04,45,074,30,06,20,191,30,07,42,136,32*7C
$GPGSV,4,2,15,08,22,133,33,11,18,043,27,13,03,167,24,17,62,288,26*7A
$GPGSV,4,3,15,20,05,113,27,26,26,282,26,28,42,001,30,30,75,106,21*7C
$GPGSV,4,4,15,51,,,30,09,02,167,,15,,,*45
$GLGSV,2,1,08,74,37,115,32,,,,25,86,66,254,26,76,16,334,23*50
$GLGSV,2,2,08,75,59,025,28,84,02,028,21,87,15,217,35,85,46,012,25*6B
$GPGGA,142623.0,1928.411133,N,09905.587959,W,1,11,0.7,2224.6,M,0.0,M,,*44
$GNGNS,142623.0,1928.411133,N,09905.587959,W,AA,17,0.7,2224.6,0.0,,*76
$GPVTG,199.5,T,199.5,M,44.2,N,81.9,K,A*21
$GPRMC,142623.0,A,1928.411133,N,09905.587959,W,44.2,199.5,260914,0.0,E,A*24
$GPGSA,A,2,01,04,06,07,08,11,17,20,26,28,30,,1.0,0.7,0.7*37
$GNGSA,A,2,01,04,06,07,08,11,17,20,26,28,30,,1.0,0.7,0.7*29
$GNGSA,A,2,74,75,76,85,86,87,,,,,,,1.0,0.7,0.7*20
$GPGSV,4,1,15,01,33,059,35,04,45,074,30,06,20,191,30,07,42,136,31*7F
$GPGSV,4,2,15,08,22,133,30,11,18,043,30,13,03,167,27,17,62,288,28*72
$GPGSV,4,3,15,20,05,113,28,26,26,282,24,28,42,001,30,30,75,106,23*73
$GPGSV,4,4,15,51,,,30,09,02,167,,15,,,*45
$GLGSV,2,1,08,74,37,115,33,,,,25,86,66,254,27,76,16,334,19*59
$GLGSV,2,2,08,75,59,025,29,84,02,028,21,87,15,217,33,85,46,012,28*61
$GPGGA,142624.0,1928.399024,N,09905.592381,W,1,11,0.7,2224.7,M,0.0,M,,*49
$GNGNS,142624.0,1928.399024,N,09905.592381,W,AA,17,0.7,2224.7,0.0,,*7B
$GPVTG,199.1,T,199.1,M,44.7,N,82.7,K,A*29
$GPRMC,142624.0,A,1928.399024,N,09905.592381,W,44.7,199.1,260914,0.0,E,A*29
$GPGSA,A,2,01,04,06,07,08,11,17,20,26,28,30,,1.0,0.7,0.7*37
$GNGSA,A,2,01,04,06,07,08,11,17,20,26,28,30,,1.0,0.7,0.7*29
$GNGSA,A,2,74,75,76,85,86,87,,,,,,,1.0,0.7,0.7*20
$GPGSV,4,1,15,01,33,059,36,04,45,074,27,06,20,191,27,07,42,136,32*7F
$GPGSV,4,2,15,08,22,133,33,11,18,043,28,13,03,167,23,17,62,288,28*7C
$GPGSV,4,3,15,20,05,113,26,26,26,282,27,28,42,001,31,30,75,106,19*76
$GPGSV,4,4,15,51,,,30,09,02,167,,15,,,*45
$GLGSV,2,1,08,74,37,115,33,,,,28,86,66,254,25,76,16,334,22*5E
$GLGSV,2,2,08,75,59,025,26,84,02,028,21,87,15,217,32,85,46,012,23*64
$GPGGA,142625.0,1928.387049,N,09905.596649,W,1,11,0.7,2224.6,M,0.0,M,,*48
$GNGNS,142625.0,1928.387049,N,09905.596649,W,AA,17,0.7,2224.6,0.0,,*7A
$GPVTG,199.4,T,199.4,M,45.0,N,83.3,K,A*2A
$GPRMC,142625.0,A,1928.387049,N,09905.596649,W,45.0,199.4,260914,0.0,E,A*2A
$GPGSA,A,2,01,04,06,07,08,11,17,20,26,28,30,,1.0,0.7,0.7*37
$GNGSA,A,2,01,04,06,07,08,11,17,20,26,28,30,,1.0,0.7,0.7*29
$GNGSA,A,2,74,75,76,85,86,87,,,,,,,1.0,0.7,0.7*20
$GPGSV,4,1,15,01,33,059,36,04,45,074,30,06,20,191,27,07,42,136,32*79
$GPGSV,4,2,15,08,22,133,33,11,18,043,31,13,03,167,29,17,62,288,28*7E
$GPGSV,4,3,15,20,05,113,26,26,26,282,24,28,42,001,30,30,75,106,22*7C
$GPGSV,4,4,15,51,,,30,09,02,167,,15,,,*45
$GLGSV,2,1,08,74,37,115,34,,,,28,86,66,254,25,76,16,334,22*59
$GLGSV,2,2,08,75,59,025,28,84,02,028,21,87,15,217,34,85,46,012,27*68
$GPGGA,142626.0,1928.375442,N,09905.601287,W,1,11,0.7,2224.4,M,0.0,M,,*40
$GNGNS,142626.0,1928.375442,N,09905.601287,W,AA,17,0.7,2224.4,0.0,,*72
$GPVTG,199.7,T,199.7,M,45.2,N,83.8,K,A*23
$GPRMC,142626.0,A,1928.375442,N,09905.601287,W,45.2,199.7,260914,0.0,E,A*21
$GPGSA,A,2,01,04,06,07,08,11,17,20,26,28,30,,1.0,0.7,0.7*37
$GNGSA,A,2,01,04,06,07,08,11,17,20,26,28,30,,1.0,0.7,0.7*29
$GNGSA,A,2,74,75,76,85,86,87,,,,,,,1.0,0.7,0.7*20
$GPGSV,4,1,15,01,33,059,37,04,45,074,31,06,20,191,24,07,42,136,34*7C
$GPGSV,4,2,15,08,22,133,34,11,18,043,35,13,03,167,28,17,62,288,27*73
$GPGSV,4,3,15,20,05,113,26,26,26,282,25,28,42,001,30,30,75,106,25*7A
$GPGSV,4,4,15,51,,,30,09,02,167,,15,,,*45
$GLGSV,2,1,08,74,37,115,33,,,,28,86,66,254,25,76,16,334,25*59
$GLGSV,2,2,08,75,59,025,28,84,02,028,21,87,15,217,29,85,46,012,28*6B
$GPGGA,142627.0,1928.363879,N,09905.605616,W,1,11,0.7,2224.2,M,0.0,M,,*4C
$GNGNS,142627.0,1928.363879,N,09905.605616,W,AA,17,0.7,2224.2,0.0,,*7E
$GPVTG,199.5,T,199.5,M,45.4,N,84.1,K,A*2B
$GPRMC,142627.0,A,1928.363879,N,09905.605616,W,45.4,199.5,260914,0.0,E,A*2F
$GPGSA,A,2,01,04,06,07,08,11,17,20,26,28,30,,1.0,0.7,0.7*37
$GNGSA,A,2,01,04,06,07,08,11,17,20,26,28,30,,1.0,0.7,0.7*29
$GNGSA,A,2,74,75,76,85,86,87,,,,,,,1.0,0.7,0.7*20
$GPGSV,4,1,15,01,33,059,36,04,45,074,32,06,20,191,25,07,42,136,31*7A
$GPGSV,4,2,15,08,22,133,33,11,18,043,33,13,03,167,33,17,62,288,27*78
$GPGSV,4,3,15,20,05,113,29,26,26,282,26,28,42,001,30,30,75,106,23*70
$GPGSV,4,4,15,51,,,31,09,02,167,,15,,,*44
$GLGSV,2,1,08,74,37,115,32,,,,26,86,66,254,22,76,16,334,21*55
$GLGSV,2,2,08,75,59,025,27,84,02,028,21,87,15,217,33,85,46,012,25*62
$GPGGA,142628.0,1928.351718,N,09905.610448,W,1,11,0.7,2223.7,M,0.0,M,,*45
$GNGNS,142628.0,1928.351718,N,09905.610448,W,AA,17,0.7,2223.7,0.0,,*77
$GPVTG,199.2,T,199.2,M,45.3,N,83.9,K,A*23
$GPRMC,142628.0,A,1928.351718,N,09905.610448,W,45.3,199.2,260914,0.0,E,A*24
$GPGSA,A,2,01,04,06,07,08,11,17,20,26,28,30,,1.0,0.7,0.7*37
$GNGSA,A,2,01,04,06,07,08,11,17,20,26,28,30,,1.0,0.7,0.7*29
$GNGSA,A,2,74,75,76,85,86,87,,,,,,,1.0,0.7,0.7*20
$GPGSV,4,1,15,01,33,059,36,04,45,074,30,06,20,191,28,07,42,136,30*74
$GPGSV,4,2,15,08,22,133,34,11,18,043,32,13,03,167,25,17,62,288,26*78
$GPGSV,4,3,15,20,05,113,32,26,26,282,27,28,42,001,31,30,75,106,22*7B
$GPGSV,4,4,15,51,,,30,09,02,167,,15,,,*45
$GLGSV,2,1,08,74,37,115,29,,,,24,86,66,254,24,76,16,334,20*5A
$GLGSV,2,2,08,75,59,025,29,84,02,028,21,87,15,217,32,85,46,012,25*6D
$GPGGA,142629.0,1928.339708,N,09905.614433,W,1,11,0.7,2222.8,M,0.0,M,,*4D
$GNGNS,142629.0,1928.339708,N,09905.614433,W,AA,17,0.7,2222.8,0.0,,*7F
$GPVTG,198.9,T,198.9,M,45.5,N,84.2,K,A*29
$GPRMC,142629.0,A,1928.339708,N,09905.614433,W,45.5,198.9,260914,0.0,E,A*2E
$GPGSA,A,2,01,04,06,07,08,11,17,20,26,28,30,,1.0,0.7,0.7*37
$GNGSA,A,2,01,04,06,07,08,11,17,20,26,28,30,,1.0,0.7,0.7*29
$GNGSA,A,2,74,75,76,85,86,87,,,,,,,1.0,0.7,0.7*20
$GPGSV,4,1,15,01,33,059,36,04,45,074,28,06,20,191,28,07,42,136,32*7F
$GPGSV,4,2,15,08,22,133,33,11,18,043,31,13,03,167,31,17,62,288,27*78
$GPGSV,4,3,15,20,05,113,32,26,26,282,28,28,42,001,32,30,75,106,20*75
$GPGSV,4,4,15,51,,,30,09,02,167,,15,,,*45
$GLGSV,2,1,08,74,37,115,33,,,,28,86,66,254,24,76,16,334,19*57
$GLGSV,2,2,08,75,59,025,29,87,15,217,34,85,46,012,26,,02,028,*67
$GPGGA,142630.0,1928.327653,N,09905.618576,W,1,11,0.7,2222.1,M,0.0,M,,*40
$GNGNS,142630.0,1928.327653,N,09905.618576,W,AA,17,0.7,2222.1,0.0,,*72
$GPVTG,199.1,T,199.1,M,45.8,N,84.8,K,A*2E
$GPRMC,142630.0,A,1928.327653,N,09905.618576,W,45.8,199.1,260914,0.0,E,A*2E
$GPGSA,A,2,01,04,06,07,08,11,17,20,26,28,30,,1.0,0.7,0.7*37
$GNGSA,A,2,01,04,06,07,08,11,17,20,26,28,30,,1.0,0.7,0.7*29
$GNGSA,A,2,74,75,76,85,86,87,,,,,,,1.0,0.7,0.7*20
$GPGSV,4,1,15,01,33,059,34,04,45,074,29,06,20,191,26,07,42,136,31*71
$GPGSV,4,2,15,08,22,133,33,09,02,167,22,11,18,043,30,13,03,167,26*71
$GPGSV,4,3,15,17,62,288,27,20,05,113,29,26,26,282,26,28,42,001,32*70
$GPGSV,4,4,15,30,75,106,25,51,,,30,15,,,*4F
$GLGSV,2,1,08,74,37,115,30,,,,27,86,66,254,26,76,16,334,18*58
$GLGSV,2,2,08,75,59,025,26,87,15,217,36,85,46,012,23,84,02,028,*63
$GPGGA,142631.0,1928.315820,N,09905.622875,W,1,11,0.7,2221.5,M,0.0,M,,*4A
$GNGNS,142631.0,1928.315820,N,09905.622875,W,AA,17,0.7,2221.5,0.0,,*78
$GPVTG,199.1,T,199.1,M,46.1,N,85.3,K,A*2E
$GPRMC,142631.0,A,1928.315820,N,09905.622875,W,46.1,199.1,260914,0.0,E,A*29
$GPGSA,A,2,01,04,06,07,08,11,17,20,26,28,30,,1.0,0.7,0.7*37
$GNGSA,A,2,01,04,06,07,08,11,17,20,26,28,30,,1.0,0.7,0.7*29
$GNGSA,A,2,74,75,76,85,86,87,,,,,,,1.0,0.7,0.7*20
$GPGSV,4,1,15,01,33,059,34,04,45,074,30,06,20,191,29,07,42,136,31*76
$GPGSV,4,2,15,08,22,133,35,09,02,167,21,11,18,043,29,13,03,167,27*7D
$GPGSV,4,3,15,17,62,288,25,20,05,113,20,26,26,282,28,28,42,001,32*75
$GPGSV,4,4,15,30,75,106,21,51,,,30,15,,,*4B
$GLGSV,2,1,08,74,37,115,33,,,,25,86,66,254,26,76,16,334,18*59
$GLGSV,2,2,08,75,59,025,28,87,15,217,36,85,46,012,24,84,02,028,*6A
$GPGGA,142632.0,1928.303202,N,09905.627521,W,1,11,0.7,2221.2,M,0.0,M,,*4A
$GNGNS,142632.0,1928.303202,N,09905.627521,W,AA,17,0.7,2221.2,0.0,,*78
$GPVTG,199.5,T,199.5,M,46.1,N,85.5,K,A*28
$GPRMC,142632.0,A,1928.303202,N,09905.627521,W,46.1,199.5,260914,0.0,E,A*2A
$GPGSA,A,2,01,04,06,07,08,11,17,20,26,28,30,,1.0,0.7,0.7*37
$GNGSA,A,2,01,04,06,07,08,11,17,20,26,28,30,,1.0,0.7,0.7*29
$GNGSA,A,2,74,75,76,85,86,87,,,,,,,1.0,0.7,0.7*20
$GPGSV,4,1,15,01,33,059,34,04,45,074,32,06,20,191,28,07,42,136,32*76
$GPGSV,4,2,15,08,22,133,34,09,02,167,20,11,18,043,29,13,03,167,25*7F
$GPGSV,4,3,15,17,62,288,26,20,05,113,20,26,26,282,26,28,42,001,32*78
$GPGSV,4,4,15,30,75,106,21,51,,,30,15,,,*4B
$GLGSV,2,1,08,74,37,115,33,,,,19,86,66,254,26,76,16,334,18*56
$GLGSV,2,2,08,75,59,025,27,87,15,217,34,85,46,012,25,84,02,028,*66
$GPGGA,142633.0,1928.290789,N,09905.632303,W,1,11,0.7,2221.5,M,0.0,M,,*43
$GNGNS,142633.0,1928.290789,N,09905.632303,W,AA,17,0.7,2221.5,0.0,,*71
$GPVTG,199.6,T,199.6,M,46.3,N,85.8,K,A*27
$GPRMC,142633.0,A,1928.290789,N,09905.632303,W,46.3,199.6,260914,0.0,E,A*25
$GPGSA,A,2,01,04,06,07,08,11,17,20,26,28,30,,1.0,0.7,0.7*37
$GNGSA,A,2,01,04,06,07,08,11,17,20,26,28,30,,1.0,0.7,0.7*29
$GNGSA,A,2,74,75,76,85,86,87,,,,,,,1.0,0.7,0.7*20
$GPGSV,4,1,15,01,33,059,36,04,45,074,28,06,20,191,25,07,42,136,33*73
$GPGSV,4,2,15,08,22,133,30,09,02,167,20,11,18,043,27,13,03,167,28*78
$GPGSV,4,3,15,17,62,288,27,20,05,113,18,26,26,282,23,28,42,001,31*74
$GPGSV,4,4,15,30,75,106,23,51,,,30,15,,,*49
$GLGSV,2,1,08,74,37,115,34,,,,18,86,66,254,25,76,16,334,20*58
$GLGSV,2,2,08,75,59,025,27,87,15,217,35,85,46,012,25,84,02,028,*67
